Time (s),Altitude (ft),Vertical velocity (ft/s),Vertical acceleration (G),Total velocity (ft/s),Total acceleration (G),Position East of launch (ft),Position North of launch (ft),Lateral distance (ft),Lateral direction (°),Lateral velocity (ft/s),Lateral acceleration (G),Latitude (°),Longitude (°),Gravitational acceleration (G),Angle of attack (°),Roll rate (r/s),Pitch rate (r/s),Yaw rate (r/s),Mass (g),Motor mass (g),Longitudinal moment of inertia (lb·ft²),Rotational moment of inertia (lb·ft²),CP location (in),CG location (in),Stability margin calibers (​),Mach number (​),Reynolds number (​),Thrust (N),Drag force (N),Drag coefficient (​),Axial drag coefficient (​),Friction drag coefficient (​),Pressure drag coefficient (​),Base drag coefficient (​),Normal force coefficient (​),Pitch moment coefficient (​),Yaw moment coefficient (​),Side force coefficient (​),Roll moment coefficient (​),Roll forcing coefficient (​),Roll damping coefficient (​),Pitch damping coefficient (​),Coriolis acceleration (G),Reference length (in),Reference area (in²),Vertical orientation (zenith) (°),Lateral orientation (azimuth) (°),Wind velocity (ft/s),Air temperature (°F),Air pressure (mbar),Speed of sound (ft/s),Simulation time step (s),Computation time (s)
# Event IGNITION occurred at t=0 seconds
# Event LAUNCH occurred at t=0 seconds
0.01,-0.001,-0.25,-0.777,0.25,0.777,0,0,0,0,0,0,28.61,-80.6,0.999,92.188,0,0,0,654.704,86.985,2.149,0.024,NaN,27.546,NaN,0.006,1.542e5,1.424,-1.278e-6,0.84,-1.149e-4,0.446,0.274,0.12,NaN,NaN,NaN,NaN,NaN,NaN,NaN,NaN,9.945e-7,3,7.069,90,0,6.541,59,1013.25,1116.761,0.01,0.007
0.02,-5.358e-4,-0.107,-0.333,0.107,0.333,0,0,0,0,0,0,28.61,-80.6,0.999,90.944,0,0,0,654.689,86.97,2.149,0.024,NaN,27.546,NaN,0.006,1.532e5,4.272,-1.028e-7,0.84,-9.364e-6,0.446,0.274,0.12,NaN,NaN,NaN,NaN,NaN,NaN,NaN,NaN,4.265e-7,3,7.069,90,0,6.503,59,1013.25,1116.761,0.01,0.009
0.03,3.506e-4,0.07,0.218,0.07,0.218,0,0,0,0,0,0,28.61,-80.6,0.999,89.378,0,0,0,654.639,86.919,2.148,0.024,NaN,27.545,NaN,0.006,1.522e5,7.81,2.909e-8,0.841,2.683e-6,0.447,0.274,0.12,NaN,NaN,NaN,NaN,NaN,NaN,NaN,NaN,2.791e-7,3,7.069,90,0,6.464,59,1013.25,1116.761,0.01,0.01
0.04,0.003,0.418,1.08,0.418,1.08,0,0,0,0,0,0,28.61,-80.6,0.999,86.28,0,0,0,654.573,86.854,2.148,0.024,NaN,27.543,NaN,0.006,1.516e5,13.345,5.99e-6,0.842,5.568e-4,0.448,0.274,0.12,NaN,NaN,NaN,NaN,NaN,NaN,NaN,NaN,1.662e-6,3,7.069,90,0,6.425,59,1013.25,1116.761,0.01,0.011
0.05,0.01,1.049,1.963,1.049,1.963,0,0,0,0,0,0,28.61,-80.6,0.999,80.671,0,0,0,654.508,86.789,2.148,0.024,NaN,27.542,NaN,0.006,1.524e5,19.007,8.97e-5,0.841,0.008,0.447,0.274,0.12,NaN,NaN,NaN,NaN,NaN,NaN,NaN,NaN,4.175e-6,3,7.069,90,0,6.386,59,1013.25,1116.761,0.01,0.011
0.06,0.025,1.974,2.876,1.974,2.876,0,0,0,0,0,0,28.61,-80.6,0.999,72.866,0,0,0,654.354,86.635,2.147,0.024,NaN,27.538,NaN,0.006,1.578e5,24.866,5.406e-4,0.837,0.046,0.443,0.274,0.12,NaN,NaN,NaN,NaN,NaN,NaN,NaN,NaN,7.857e-6,3,7.069,90,0,6.404,59,1013.249,1116.761,0.01,0.012
0.07,0.051,3.204,3.821,3.204,3.821,0,0,0,0,0,0,28.61,-80.6,0.999,63.489,0,0,0,654.201,86.481,2.147,0.024,NaN,27.534,NaN,0.006,1.69e5,30.922,0.002,0.83,0.15,0.436,0.274,0.12,NaN,NaN,NaN,NaN,NaN,NaN,NaN,NaN,1.275e-5,3,7.069,90,0,6.423,59,1013.248,1116.761,0.01,0.014
# Event LIFTOFF occurred at t=0.08 seconds
0.08,0.091,4.737,4.766,4.737,4.766,0,0,0,0,0,0,28.61,-80.6,0.999,53.666,0,0,0,654.047,86.328,2.146,0.024,NaN,27.53,NaN,0.007,1.883e5,36.979,0.005,0.819,0.329,0.425,0.274,0.12,NaN,NaN,NaN,NaN,NaN,NaN,NaN,NaN,1.885e-5,3,7.069,90,0,6.441,59,1013.247,1116.761,0.01,0.015
0.09,0.147,6.575,5.712,6.575,5.712,0,0,0,0,0,0,28.61,-80.6,0.999,44.492,0,0,0,653.872,86.153,2.146,0.024,NaN,27.526,NaN,0.008,2.171e5,43.039,0.012,0.805,0.54,0.411,0.274,0.12,NaN,NaN,NaN,NaN,NaN,NaN,NaN,NaN,2.616e-5,3,7.069,90,0,6.459,58.999,1013.245,1116.761,0.01,0.016
0.1,0.224,8.723,6.678,8.723,6.678,0,0,0,0,0,0,28.61,-80.6,0.999,36.595,0,0,0,653.614,85.895,2.145,0.024,NaN,27.52,NaN,0.01,2.559e5,49.229,0.022,0.789,0.725,0.395,0.274,0.12,NaN,NaN,NaN,NaN,NaN,NaN,NaN,NaN,3.471e-5,3,7.069,90,0,6.477,58.999,1013.242,1116.761,0.01,0.018
0.11,0.323,11.186,7.655,11.186,7.655,0,0,0,0,0,0,28.61,-80.6,0.999,30.307,0,0,0,653.355,85.636,2.144,0.024,NaN,27.514,NaN,0.012,3.051e5,55.482,0.037,0.774,0.851,0.38,0.274,0.12,NaN,NaN,NaN,NaN,NaN,NaN,NaN,NaN,4.451e-5,3,7.069,90,0,6.538,58.999,1013.238,1116.76,0.01,0.019
0.12,0.449,13.963,8.632,13.963,8.632,0,0,0,0,0,0,28.61,-80.6,0.999,25.297,0,0,0,653.097,85.377,2.143,0.024,NaN,27.508,NaN,0.014,3.637e5,61.734,0.057,0.759,0.922,0.365,0.274,0.12,NaN,NaN,NaN,NaN,NaN,NaN,NaN,NaN,5.556e-5,3,7.069,90,0,6.599,58.998,1013.234,1116.76,0.01,0.02
0.13,0.604,17.032,9.54,17.032,9.54,0,0,0,0,0,0,28.61,-80.6,0.999,21.358,0,0,0,652.801,85.082,2.141,0.024,NaN,27.501,NaN,0.016,4.307e5,67.549,0.083,0.746,0.951,0.352,0.274,0.12,NaN,NaN,NaN,NaN,NaN,NaN,NaN,NaN,6.778e-5,3,7.069,90,0,6.66,58.998,1013.228,1116.759,0.01,0.022
0.14,0.791,20.293,10.136,20.293,10.136,0,0,0,0,0,0,28.61,-80.6,0.999,18.326,0,0,0,652.473,84.754,2.14,0.024,NaN,27.493,NaN,0.019,5.035e5,71.358,0.113,0.735,0.953,0.341,0.274,0.12,NaN,NaN,NaN,NaN,NaN,NaN,NaN,NaN,8.076e-5,3,7.069,90,0,6.722,58.997,1013.222,1116.758,0.01,0.023
0.15,1.011,23.674,10.508,23.674,10.508,0,0,0,0,0,0,28.61,-80.6,0.999,15.987,0,0,0,652.133,84.414,2.139,0.024,NaN,27.484,NaN,0.022,5.8e5,73.737,0.148,0.725,0.94,0.33,0.274,0.12,NaN,NaN,NaN,NaN,NaN,NaN,NaN,NaN,9.421e-5,3,7.069,90,0,6.783,58.996,1013.214,1116.758,0.01,0.024
0.16,1.265,27.13,10.743,27.13,10.743,0,0,0,0,0,0,28.61,-80.6,0.999,14.004,0,0,0,651.777,84.057,2.138,0.024,NaN,27.476,NaN,0.025,6.585e5,75.233,0.185,0.716,0.913,0.322,0.274,0.12,NaN,NaN,NaN,NaN,NaN,NaN,NaN,NaN,1.08e-4,3,7.069,90,0,6.767,58.995,1013.205,1116.757,0.01,0.025
0.17,1.554,30.645,10.925,30.645,10.925,0,0,0,0,0,0,28.61,-80.6,0.999,12.422,0,0,0,651.421,83.701,2.136,0.024,NaN,27.467,NaN,0.028,7.39e5,76.398,0.226,0.708,0.883,0.314,0.274,0.12,NaN,NaN,NaN,NaN,NaN,NaN,NaN,NaN,1.22e-4,3,7.069,90,0,6.75,58.994,1013.194,1116.755,0.01,0.026
0.18,1.878,34.219,11.108,34.219,11.108,0,0,0,0,0,0,28.61,-80.6,0.999,11.133,0,0,0,651.064,83.345,2.135,0.024,NaN,27.459,NaN,0.031,8.214e5,77.564,0.27,0.702,0.854,0.308,0.274,0.12,NaN,NaN,NaN,NaN,NaN,NaN,NaN,NaN,1.362e-4,3,7.069,90,0,6.734,58.993,1013.183,1116.754,0.01,0.027
0.19,2.223,37.701,11.286,37.701,11.286,0,0,0,0,0,0,28.61,-80.6,0.999,10.105,0,0,0,650.723,83.004,2.134,0.024,NaN,27.45,NaN,0.034,9.019e5,78.705,0.316,0.696,0.83,0.302,0.274,0.12,NaN,NaN,NaN,NaN,NaN,NaN,NaN,NaN,1.5e-4,3,7.069,90,0,6.719,58.992,1013.171,1116.753,0.01,0.028
0.198,2.565,40.907,11.451,40.907,11.451,0,0,0,0,0,0,28.61,-80.6,0.999,9.308,0,0,0,650.41,82.691,2.132,0.024,NaN,27.443,NaN,0.037,9.762e5,79.769,0.363,0.696,0.815,0.302,0.274,0.12,NaN,NaN,NaN,NaN,NaN,NaN,NaN,NaN,1.628e-4,3,7.069,90,0,6.705,58.991,1013.158,1116.751,0.009,0.029
0.206,2.905,43.897,11.585,43.897,11.585,0,0,0,0,0,0,28.61,-80.6,0.999,8.715,0,0,0,650.105,82.386,2.131,0.024,NaN,27.435,NaN,0.04,1.046e6,80.634,0.412,0.696,0.804,0.302,0.274,0.12,NaN,NaN,NaN,NaN,NaN,NaN,NaN,NaN,1.747e-4,3,7.069,90,0,6.729,58.99,1013.146,1116.75,0.008,0.031
0.214,3.243,46.711,11.699,46.711,11.699,0,0,0,0,0,0,28.61,-80.6,0.999,8.236,0,0,0,649.821,82.101,2.13,0.024,NaN,27.428,NaN,0.042,1.112e6,81.374,0.46,0.696,0.795,0.302,0.274,0.12,NaN,NaN,NaN,NaN,NaN,NaN,NaN,NaN,1.859e-4,3,7.069,90,0,6.761,58.988,1013.134,1116.749,0.007,0.032
# Event LAUNCHROD occurred at t=0.221 seconds
0.221,3.581,49.379,11.805,49.379,11.805,0,0,0,0,0,0,28.61,-80.6,0.999,7.831,0,0,0,649.553,81.834,2.129,0.024,NaN,27.422,NaN,0.045,1.174e6,82.067,0.508,0.696,0.788,0.302,0.274,0.12,NaN,NaN,NaN,NaN,NaN,NaN,NaN,NaN,1.965e-4,3,7.069,90,0,6.792,58.987,1013.122,1116.747,0.007,0.033
0.231,4.122,53.423,11.933,53.423,11.934,-2.96e-4,0,2.96e-4,-180,0.057,0.172,28.61,-80.6,0.999,7.229,0,0.002,3.814e-7,649.153,81.433,2.128,0.024,31.477,27.412,1.355,0.048,1.268e6,82.906,0.585,0.696,0.777,0.301,0.274,0.12,1.457,1.974,-4.346e-4,0,0,0,0,2.595e-4,2.126e-4,3,7.069,89.996,-0.005,6.837,58.985,1013.103,1116.745,0.011,0.034
0.247,5.015,59.586,12.123,59.586,12.124,-0.002,0,0.002,-180,0.147,0.181,28.61,-80.6,0.999,6.446,0,0.005,-6.042e-7,648.551,80.832,2.125,0.024,31.642,27.398,1.415,0.054,1.412e6,84.164,0.712,0.696,0.763,0.301,0.274,0.12,1.27,1.795,-2.607e-4,0,0,0,0,0.001,2.371e-4,3,7.069,89.975,-7.294e-4,6.905,58.982,1013.071,1116.742,0.016,0.034
0.271,6.539,68.989,12.326,68.989,12.328,-0.007,-1.184e-8,0.007,-180,0.286,0.182,28.61,-80.6,0.999,5.428,0,0.011,-7.602e-8,647.61,79.891,2.122,0.024,31.869,27.375,1.498,0.062,1.632e6,85.554,0.931,0.696,0.747,0.301,0.274,0.121,1.037,1.549,1.591e-5,0,0,0,0,0.005,2.746e-4,3,7.069,89.905,1.072e-4,6.958,58.977,1013.016,1116.736,0.024,0.035
0.306,9.247,83.33,12.526,83.331,12.527,-0.021,-5.28e-8,0.021,-180,0.479,0.148,28.61,-80.6,0.999,4.166,0,0.021,-3.551e-6,646.188,78.469,2.116,0.024,32.173,27.34,1.611,0.075,1.968e6,87.02,1.32,0.697,0.728,0.301,0.275,0.121,0.766,1.221,-2.621e-4,0,0,0,0,0.012,3.316e-4,3,7.069,89.698,0.002,6.991,58.967,1012.919,1116.725,0.036,0.036
0.343,12.599,98.379,12.655,98.381,12.655,-0.041,1.126e-8,0.041,180,0.604,0.053,28.61,-80.6,0.999,2.981,0,0.033,1.311e-6,644.681,76.962,2.11,0.024,32.484,27.303,1.727,0.088,2.321e6,88.112,1.8,0.697,0.714,0.301,0.275,0.121,0.527,0.891,-4.149e-4,0,0,0,0,0.02,3.915e-4,3,7.069,89.341,0.002,6.861,58.955,1012.8,1116.712,0.037,0.037
0.38,16.443,113.285,12.726,113.287,12.727,-0.063,3.718e-7,0.063,180,0.579,0.105,28.61,-80.6,0.999,1.898,8.626e-9,0.043,-4.543e-6,643.198,75.479,2.104,0.024,32.791,27.266,1.842,0.102,2.671e6,88.92,2.353,0.698,0.705,0.301,0.275,0.121,0.324,0.57,-2.856e-4,0,0,0,0,0.027,4.508e-4,3,7.069,88.844,0.003,6.619,58.941,1012.662,1116.697,0.036,0.038
0.422,21.664,130.911,12.768,130.911,12.772,-0.082,1.733e-6,0.082,179.999,0.265,0.347,28.61,-80.6,0.999,0.91,2.311e-8,0.052,-7.263e-6,641.431,73.712,2.097,0.024,33.094,27.222,1.957,0.117,3.085e6,89.738,3.119,0.698,0.7,0.301,0.275,0.122,0.15,0.265,-2.651e-4,0,0,0,0,0.029,5.21e-4,3,7.069,88.107,0.003,6.653,58.923,1012.476,1116.676,0.043,0.039
0.472,28.726,151.526,12.744,151.527,12.764,-0.077,5.875e-6,0.077,179.996,0.572,0.709,28.61,-80.6,0.999,0.142,-1.027e-7,-0.056,1.378e-5,639.347,71.628,2.089,0.024,33.346,27.17,2.059,0.136,3.571e6,90.45,4.173,0.699,0.699,0.301,0.276,0.122,0.023,0.072,-3.684e-4,0,0,0,0,-0.025,6.03e-4,3,7.069,87.123,0.001,6.636,58.898,1012.223,1116.648,0.05,0.04
0.522,36.817,172.046,12.666,172.058,12.714,-0.014,1.118e-5,0.014,179.954,2.056,1.094,28.61,-80.6,0.999,0.957,7.809e-8,-0.045,-1.925e-5,637.259,69.54,2.081,0.024,33.085,27.117,1.989,0.154,4.054e6,91.065,5.402,0.7,0.702,0.301,0.276,0.123,0.158,0.327,1.025e-6,0,0,0,0,-0.012,6.847e-4,3,7.069,86.201,-0.002,6.391,58.869,1011.934,1116.616,0.05,0.041
0.553,42.351,184.602,12.517,184.631,12.583,0.068,1.296e-5,0.068,0.011,3.254,1.282,28.61,-80.6,0.999,1.204,-1.008e-7,-0.031,1.239e-5,635.961,68.241,2.076,0.024,33.01,27.084,1.975,0.166,4.35e6,90.891,6.237,0.701,0.704,0.301,0.277,0.124,0.201,0.402,2.119e-4,0,0,0,0,-0.005,7.348e-4,3,7.069,85.774,-0.004,6.477,58.849,1011.736,1116.595,0.031,0.043
0.576,46.597,193.588,12.393,193.634,12.468,0.152,1.185e-5,0.152,0.004,4.212,1.362,28.61,-80.6,0.999,1.241,0,-0.019,-1.383e-5,635.021,67.302,2.072,0.024,33,27.06,1.98,0.174,4.562e6,90.669,6.867,0.702,0.705,0.301,0.277,0.124,0.207,0.412,3.54e-4,0,0,0,0,-0.002,7.706e-4,3,7.069,85.569,-0.005,6.574,58.834,1011.584,1116.578,0.022,0.044
0.596,50.531,201.484,12.287,201.548,12.365,0.244,8.393e-6,0.244,0.002,5.095,1.389,28.61,-80.6,0.999,1.19,-1.356e-8,-0.008,-7.97e-6,634.188,66.469,2.069,0.024,33.018,27.039,1.993,0.181,4.748e6,90.493,7.443,0.702,0.705,0.301,0.277,0.124,0.198,0.395,8.928e-5,0,0,0,0,-2.876e-4,8.021e-4,3,7.069,85.471,-0.007,6.659,58.82,1011.444,1116.562,0.02,0.045
0.615,54.458,209.013,12.195,209.098,12.272,0.35,2.155e-6,0.35,3.527e-4,5.947,1.371,28.61,-80.6,0.999,1.061,0,0.003,-1.03e-5,633.39,65.671,2.065,0.024,33.059,27.019,2.013,0.188,4.926e6,90.379,8.011,0.703,0.705,0.301,0.278,0.125,0.176,0.355,-2.33e-4,0,0,0,0,3.804e-5,8.322e-4,3,7.069,85.455,-0.008,6.78,58.806,1011.303,1116.547,0.019,0.047
0.635,58.675,216.761,12.119,216.868,12.19,0.476,-7.827e-6,0.476,-9.413e-4,6.803,1.31,28.61,-80.6,0.999,0.864,-1.644e-8,0.014,-1.399e-5,632.565,64.846,2.062,0.024,33.123,26.998,2.042,0.195,5.108e6,90.375,8.614,0.703,0.705,0.3,0.278,0.125,0.142,0.29,4.181e-4,0,0,0,0,7.138e-4,8.631e-4,3,7.069,85.515,-0.008,6.916,58.791,1011.153,1116.53,0.02,0.049
0.657,63.642,225.489,12.034,225.621,12.093,0.64,-2.37e-5,0.64,-0.002,7.71,1.197,28.61,-80.6,0.999,0.601,-2.792e-8,0.023,-2.679e-5,631.63,63.911,2.058,0.024,33.209,26.974,2.078,0.202,5.314e6,90.375,9.321,0.704,0.705,0.3,0.278,0.125,0.098,0.202,4.904e-4,0,0,0,0,0.002,8.98e-4,3,7.069,85.666,-0.009,7.011,58.773,1010.975,1116.511,0.022,0.05
0.687,70.535,236.975,11.916,237.137,11.958,0.886,-5.235e-5,0.886,-0.003,8.767,1.003,28.61,-80.6,0.999,0.24,-9.258e-8,0.031,-7.011e-5,630.389,62.669,2.053,0.024,33.329,26.942,2.129,0.213,5.584e6,90.375,10.297,0.705,0.705,0.3,0.279,0.126,0.039,0.08,4.387e-4,0,0,0,0,0.003,9.439e-4,3,7.069,85.966,-0.01,6.969,58.748,1010.729,1116.484,0.03,0.051
0.732,81.512,253.944,11.694,254.139,11.713,1.306,-1.105e-4,1.306,-0.005,9.955,0.671,28.61,-80.6,0.999,0.259,-2.742e-7,-0.03,1.676e-5,628.533,60.814,2.046,0.024,33.327,26.894,2.144,0.228,5.983e6,90.182,11.844,0.706,0.706,0.3,0.279,0.127,0.042,0.092,-4.663e-4,0,0,0,0,-0.002,0.001,3,7.069,86.482,-0.011,6.933,58.709,1010.336,1116.44,0.045,0.058
0.778,93.639,270.963,11.335,271.174,11.343,1.784,-1.884e-4,1.784,-0.006,10.704,0.418,28.61,-80.6,0.999,0.532,1.345e-8,-0.012,-3.37e-5,626.633,58.914,2.038,0.024,33.242,26.844,2.133,0.243,6.382e6,89.332,13.515,0.708,0.708,0.3,0.28,0.128,0.087,0.185,-4.994e-4,0,0,0,0,-3.502e-4,0.001,3,7.069,86.838,-0.009,6.942,58.666,1009.903,1116.393,0.046,0.06
0.799,99.402,278.452,11.053,278.667,11.059,2.012,-2.269e-4,2.012,-0.006,10.95,0.357,28.61,-80.6,0.999,0.558,-4.056e-8,2.066e-4,-5.163e-6,625.776,58.057,2.034,0.024,33.236,26.822,2.138,0.25,6.557e6,88.254,14.284,0.708,0.709,0.3,0.281,0.128,0.091,0.195,-1.454e-4,0,0,0,0,1.006e-7,0.001,3,7.069,86.879,-0.006,6.956,58.646,1009.697,1116.37,0.021,0.065
0.819,105.054,285.473,10.833,285.692,10.84,2.233,-2.639e-4,2.233,-0.007,11.186,0.393,28.61,-80.6,0.999,0.462,-2.282e-8,0.011,3.967e-6,624.979,57.26,2.031,0.024,33.269,26.801,2.156,0.256,6.721e6,87.557,15.018,0.709,0.709,0.3,0.281,0.129,0.075,0.162,4.205e-5,0,0,0,0,2.621e-4,0.001,3,7.069,86.837,-0.005,6.893,58.625,1009.495,1116.348,0.02,0.067
0.842,111.672,293.312,10.589,293.538,10.601,2.493,-3.059e-4,2.493,-0.007,11.509,0.498,28.61,-80.6,0.999,0.284,-7.607e-8,0.02,-1.937e-5,624.071,56.351,2.027,0.024,33.329,26.777,2.184,0.263,6.904e6,86.836,15.86,0.71,0.71,0.299,0.281,0.129,0.046,0.099,-2.453e-4,0,0,0,0,8.536e-4,0.001,3,7.069,86.706,-0.005,6.816,58.602,1009.258,1116.322,0.023,0.068
0.876,121.93,304.724,10.236,304.967,10.26,2.898,-3.689e-4,2.898,-0.007,12.17,0.702,28.61,-80.6,0.999,8.069e-4,5.225e-8,-0.023,-0.008,622.708,54.989,2.022,0.024,33.427,26.741,2.229,0.274,7.171e6,85.875,17.135,0.711,0.711,0.299,0.282,0.13,1.293e-4,0.002,2.708e-5,0,0,0,0,-0.001,0.001,3,7.069,86.414,-0.004,6.86,58.565,1008.891,1116.281,0.034,0.07
0.926,137.565,320.579,9.705,320.864,9.747,3.539,-4.575e-4,3.539,-0.007,13.521,0.91,28.61,-80.6,0.999,0.251,-2.064e-8,-0.013,5.344e-6,620.757,53.038,2.013,0.024,33.348,26.689,2.22,0.288,7.542e6,84.391,19.007,0.712,0.713,0.299,0.283,0.131,0.041,0.09,-1.751e-5,0,0,0,0,-3.037e-4,0.001,3,7.069,86.041,-0.004,6.987,58.509,1008.332,1116.22,0.05,0.071
0.953,146.346,328.715,9.287,329.028,9.335,3.916,-5.07e-4,3.916,-0.007,14.349,0.951,28.61,-80.6,0.999,0.304,-1.847e-8,-0.002,-4.627e-5,619.719,52,2.009,0.024,33.334,26.661,2.224,0.295,7.732e6,82.77,20.011,0.713,0.714,0.299,0.283,0.131,0.049,0.109,3.395e-4,0,0,0,0,-6.224e-6,0.001,3,7.069,85.967,-0.006,7.057,58.478,1008.018,1116.185,0.027,0.072
0.978,154.655,336.004,9,336.342,9.041,4.284,-5.544e-4,4.284,-0.007,15.081,0.864,28.61,-80.6,0.999,0.213,-1.277e-8,0.008,-2.767e-5,618.778,51.058,2.005,0.024,33.366,26.636,2.243,0.302,7.903e6,81.816,20.926,0.714,0.714,0.299,0.284,0.132,0.034,0.077,4.333e-5,0,0,0,0,1.031e-4,0.001,3,7.069,86,-0.009,7.164,58.448,1007.721,1116.152,0.025,0.074
1.013,166.369,345.134,8.131,345.5,8.158,4.817,-6.297e-4,4.817,-0.007,15.886,0.653,28.61,-80.6,0.999,0.048,-1.492e-7,0.013,-7.079e-5,617.558,49.839,2,0.024,33.424,26.603,2.274,0.31,8.115e6,77.53,22.095,0.715,0.715,0.299,0.284,0.132,0.008,0.017,-3.66e-4,0,0,0,0,2.786e-4,0.001,3,7.069,86.15,-0.012,7.108,58.407,1007.303,1116.106,0.034,0.075
1.063,183.838,353.422,4.963,353.805,4.971,5.627,-7.544e-4,5.627,-0.008,16.46,0.289,28.61,-80.6,0.999,0.102,-2.425e-7,-0.01,8.564e-5,616.195,48.475,1.994,0.024,33.409,26.567,2.281,0.317,8.302e6,59.231,23.167,0.716,0.716,0.299,0.285,0.133,0.016,0.038,2.164e-4,0,0,0,0,-1.364e-4,0.001,3,7.069,86.392,-0.009,6.622,58.344,1006.679,1116.037,0.05,0.075
1.113,201.487,353.114,-0.188,353.491,0.194,6.446,-8.883e-4,6.446,-0.008,16.322,0.045,28.61,-80.6,0.999,0.109,8.009e-8,0.002,-2.284e-5,615.546,47.826,1.991,0.024,33.406,26.549,2.286,0.317,8.295e6,28,23.135,0.716,0.716,0.299,0.285,0.133,0.018,0.04,1.438e-4,0,0,0,0,5.724e-6,0.001,3,7.069,86.455,-0.004,6.422,58.281,1006.047,1115.968,0.05,0.076
1.158,217.455,347.405,-3.823,347.771,3.827,7.181,-9.949e-4,7.181,-0.008,15.97,0.182,28.61,-80.6,0.999,9.287e-4,-1.202e-7,0.006,0.003,615.427,47.708,1.991,0.024,33.441,26.546,2.298,0.312,8.158e6,5.282,22.361,0.715,0.715,0.299,0.284,0.133,1.49e-4,5.853e-4,-2.211e-4,0,0,0,0,4.779e-5,0.001,3,7.069,86.349,-0.009,6.143,58.225,1005.476,1115.905,0.046,0.077
# Event BURNOUT occurred at t=1.192 seconds
1.192,229.149,342.43,-4.508,342.792,4.511,7.719,-0.001,7.719,-0.008,15.763,0.166,28.61,-80.6,0.999,0.08,-5.144e-8,-0.005,-2.36e-5,615.419,47.7,1.991,0.024,33.413,26.546,2.289,0.307,8.039e6,0.5,21.7,0.715,0.715,0.299,0.284,0.132,0.013,0.029,-5.404e-5,0,0,0,0,-4.333e-5,0.001,3,7.069,86.263,-0.018,6.087,58.183,1005.058,1115.859,0.034,0.077
1.242,246.088,335.17,-4.435,335.529,4.438,8.501,-0.001,8.501,-0.008,15.52,0.163,28.61,-80.6,0.999,0.082,-5.743e-8,0.002,6.846e-5,615.419,47.7,1.991,0.024,33.41,26.546,2.288,0.301,7.865e6,0,20.756,0.714,0.714,0.299,0.283,0.132,0.013,0.03,-6.328e-5,0,0,0,0,7.007e-6,0.001,3,7.069,86.24,-0.022,5.936,58.122,1004.453,1115.792,0.05,0.079
1.292,262.67,328.16,-4.282,328.511,4.289,9.269,-0.001,9.269,-0.009,15.2,0.242,28.61,-80.6,0.999,0.04,-7.378e-8,-0.004,-2.811e-5,615.419,47.7,1.991,0.024,33.421,26.546,2.292,0.295,7.698e6,0,19.869,0.713,0.713,0.299,0.283,0.131,0.006,0.015,1.835e-4,0,0,0,0,-2.259e-5,0.001,3,7.069,86.323,-0.014,6.175,58.063,1003.86,1115.727,0.05,0.08
1.342,278.908,321.387,-4.141,321.726,4.15,10.019,-0.002,10.019,-0.009,14.756,0.273,28.61,-80.6,0.998,0.098,-9.265e-8,0.002,-1.182e-4,615.419,47.7,1.991,0.024,33.4,26.546,2.285,0.289,7.537e6,0,19.031,0.713,0.713,0.299,0.283,0.131,0.016,0.036,-3.695e-5,0,0,0,0,8.156e-6,0.001,3,7.069,86.352,-0.006,6.4,58.005,1003.28,1115.663,0.05,0.081
1.392,294.812,314.833,-4.01,315.158,4.019,10.745,-0.002,10.745,-0.01,14.299,0.269,28.61,-80.6,0.998,0.101,3.308e-8,0.009,-7.42e-5,615.419,47.7,1.991,0.024,33.397,26.546,2.284,0.283,7.381e6,0,18.242,0.712,0.712,0.299,0.282,0.13,0.016,0.037,-2.557e-4,0,0,0,0,1.644e-4,0.001,3,7.069,86.235,-0.002,7.032,57.949,1002.711,1115.6,0.05,0.082
1.442,310.394,308.477,-3.894,308.793,3.896,11.451,-0.002,11.451,-0.01,13.971,0.136,28.61,-80.6,0.998,0.1,-2.124e-7,-0.01,1.944e-5,615.419,47.7,1.991,0.024,33.395,26.546,2.283,0.277,7.23e6,0,17.488,0.711,0.711,0.299,0.282,0.13,0.016,0.037,4.311e-5,0,0,0,0,-1.852e-4,0.001,3,7.069,86.023,-0.016,6.845,57.893,1002.154,1115.539,0.05,0.084
1.492,325.663,302.304,-3.778,302.62,3.779,12.145,-0.002,12.145,-0.01,13.82,0.099,28.61,-80.6,0.998,0.157,-1.717e-7,-2.947e-4,-5.472e-6,615.419,47.7,1.991,0.024,33.374,26.546,2.276,0.272,7.083e6,0,16.775,0.711,0.711,0.299,0.282,0.13,0.025,0.058,-1.025e-4,0,0,0,0,-1.736e-7,0.001,3,7.069,85.923,-0.027,6.771,57.839,1001.608,1115.479,0.05,0.084
1.541,340.391,296.413,-3.663,296.727,3.667,12.821,-0.002,12.821,-0.011,13.635,0.156,28.61,-80.6,0.998,0.052,8.675e-9,0.006,-3.637e-5,615.419,47.7,1.991,0.024,33.408,26.546,2.287,0.266,6.943e6,0,16.109,0.71,0.71,0.299,0.281,0.129,0.008,0.019,3.265e-4,0,0,0,0,8.17e-5,0.001,3,7.069,86.001,-0.018,6.825,57.786,1001.082,1115.421,0.049,0.085
1.591,355.066,290.611,-3.553,290.916,3.559,13.496,-0.003,13.496,-0.011,13.326,0.212,28.61,-80.6,0.998,0.064,-2.06e-7,-0.006,1.222e-4,615.419,47.7,1.991,0.024,33.402,26.546,2.285,0.261,6.805e6,0,15.465,0.709,0.709,0.3,0.281,0.129,0.01,0.024,3.863e-4,0,0,0,0,-6.78e-5,0.001,3,7.069,86.134,6.767e-4,6.714,57.734,1000.557,1115.363,0.05,0.086
1.641,369.455,284.98,-3.45,285.274,3.458,14.152,-0.003,14.152,-0.011,12.946,0.238,28.61,-80.6,0.998,0.13,-4.924e-8,2.139e-4,-3.375e-5,615.419,47.7,1.991,0.024,33.378,26.546,2.278,0.256,6.671e6,0,14.855,0.709,0.709,0.3,0.281,0.129,0.021,0.048,-3.138e-4,0,0,0,0,1.029e-7,0.001,3,7.069,86.19,0.01,6.748,57.682,1000.043,1115.306,0.05,0.087
1.691,383.567,279.508,-3.356,279.791,3.361,14.79,-0.003,14.79,-0.011,12.584,0.196,28.61,-80.6,0.998,0.064,-9.579e-8,0.006,-1.036e-4,615.419,47.7,1.991,0.024,33.399,26.546,2.284,0.251,6.54e6,0,14.273,0.708,0.708,0.3,0.281,0.128,0.01,0.023,4.786e-4,0,0,0,0,8.182e-5,0.001,3,7.069,86.119,0.002,6.7,57.632,999.538,1115.251,0.05,0.087
1.741,397.409,274.18,-3.269,274.457,3.271,15.413,-0.003,15.413,-0.011,12.334,0.122,28.61,-80.6,0.998,0.073,-5.753e-8,-0.006,-2.995e-5,615.419,47.7,1.991,0.024,33.394,26.546,2.283,0.246,6.413e6,0,13.719,0.708,0.708,0.3,0.28,0.128,0.012,0.027,-3.149e-4,0,0,0,0,-7.815e-5,0.001,3,7.069,85.993,-0.002,6.468,57.583,999.043,1115.196,0.05,0.088
1.791,410.987,268.989,-3.184,269.265,3.185,16.026,-0.003,16.026,-0.011,12.187,0.082,28.61,-80.6,0.998,0.148,-1.043e-7,2.844e-4,6.78e-5,615.419,47.7,1.991,0.024,33.368,26.546,2.274,0.242,6.29e6,0,13.19,0.707,0.708,0.3,0.28,0.128,0.024,0.054,4.738e-4,0,0,0,0,2.041e-7,0.001,3,7.069,85.938,-0.003,6.155,57.534,998.558,1115.143,0.05,0.089
1.841,424.31,263.936,-3.097,264.211,3.1,16.631,-0.003,16.631,-0.011,12.031,0.128,28.61,-80.6,0.998,0.042,-1.488e-7,0.005,-1.211e-5,615.419,47.7,1.991,0.024,33.402,26.546,2.286,0.237,6.17e6,0,12.687,0.707,0.707,0.3,0.28,0.127,0.007,0.015,2.49e-4,0,0,0,0,7.855e-5,0.001,3,7.069,86.005,-0.006,6.213,57.487,998.082,1115.09,0.05,0.089
1.891,437.383,259.022,-3.015,259.29,3.019,17.227,-0.003,17.227,-0.011,11.783,0.169,28.61,-80.6,0.998,0.067,-6.708e-8,-0.005,1.622e-5,615.419,47.7,1.991,0.024,33.392,26.546,2.282,0.233,6.053e6,0,12.208,0.707,0.707,0.3,0.28,0.127,0.011,0.025,1.676e-4,0,0,0,0,-5.608e-5,0.001,3,7.069,86.11,-0.017,6.186,57.44,997.614,1115.039,0.05,0.09
1.941,450.214,254.235,-2.938,254.495,2.943,17.809,-0.003,17.809,-0.011,11.494,0.176,28.61,-80.6,0.998,0.1,-3.703e-8,-5.673e-4,-3.061e-5,615.419,47.7,1.991,0.024,33.38,26.546,2.278,0.229,5.94e6,0,11.749,0.706,0.706,0.3,0.279,0.127,0.016,0.036,-4.533e-4,0,0,0,0,-9.093e-7,0.001,3,7.069,86.158,-0.022,6.055,57.394,997.156,1114.988,0.05,0.091
1.991,462.809,249.567,-2.866,249.819,2.871,18.377,-0.004,18.377,-0.011,11.213,0.168,28.61,-80.6,0.998,0.096,-8.907e-8,0.004,-1.424e-5,615.419,47.7,1.991,0.024,33.381,26.546,2.278,0.224,5.829e6,0,11.312,0.706,0.706,0.3,0.279,0.127,0.015,0.035,-2.273e-4,0,0,0,0,4.094e-5,9.944e-4,3,7.069,86.123,-0.016,6.129,57.35,996.706,1114.938,0.05,0.092
2.041,475.173,245.011,-2.8,245.257,2.802,18.931,-0.004,18.931,-0.011,10.982,0.115,28.61,-80.6,0.998,0.026,-1.23e-7,-0.006,1.199e-4,615.419,47.7,1.991,0.024,33.403,26.546,2.286,0.22,5.721e6,0,10.892,0.705,0.705,0.3,0.279,0.126,0.004,0.009,-4.219e-4,0,0,0,0,-9.356e-5,9.763e-4,3,7.069,86.026,-0.005,5.905,57.305,996.264,1114.89,0.05,0.093
2.091,487.311,240.558,-2.736,240.802,2.737,19.476,-0.004,19.476,-0.011,10.842,0.07,28.61,-80.6,0.998,0.135,-3.828e-8,-0.002,4.371e-5,615.419,47.7,1.991,0.024,33.365,26.546,2.273,0.216,5.615e6,0,10.49,0.705,0.705,0.3,0.279,0.126,0.022,0.05,-2.025e-4,0,0,0,0,-1.222e-5,9.586e-4,3,7.069,85.949,0.01,5.579,57.262,995.83,1114.842,0.05,0.093
2.141,499.23,236.207,-2.672,236.451,2.673,20.016,-0.004,20.016,-0.011,10.741,0.068,28.61,-80.6,0.998,0.132,-6.932e-8,0.003,1.142e-4,615.419,47.7,1.991,0.024,33.365,26.546,2.273,0.212,5.512e6,0,10.106,0.705,0.705,0.3,0.279,0.126,0.021,0.048,-3.263e-5,0,0,0,0,3.948e-5,9.412e-4,3,7.069,85.967,0.021,5.349,57.22,995.404,1114.795,0.05,0.094
2.191,510.934,231.961,-2.607,232.202,2.61,20.549,-0.004,20.549,-0.011,10.577,0.14,28.61,-80.6,0.998,0.075,-5.754e-8,-0.005,1.245e-4,615.419,47.7,1.991,0.024,33.383,26.546,2.279,0.209,5.412e6,0,9.741,0.704,0.704,0.3,0.279,0.126,0.012,0.028,3.813e-4,0,0,0,0,-8.213e-5,9.243e-4,3,7.069,86.059,0.019,5.745,57.178,994.985,1114.749,0.05,0.095
2.241,522.428,227.818,-2.546,228.051,2.553,21.072,-0.004,21.072,-0.011,10.302,0.186,28.61,-80.6,0.998,0.222,-1.903e-8,9.62e-4,2.864e-5,615.419,47.7,1.991,0.024,33.333,26.546,2.263,0.205,5.315e6,0,9.392,0.704,0.704,0.3,0.278,0.125,0.036,0.081,4.654e-4,0,0,0,0,3.255e-6,9.078e-4,3,7.069,86.103,0.006,6.157,57.137,994.574,1114.704,0.05,0.097
2.291,533.717,223.769,-2.489,223.991,2.497,21.579,-0.004,21.579,-0.01,9.985,0.195,28.61,-80.6,0.998,0.26,-7.369e-8,0.01,1.21e-4,615.419,47.7,1.991,0.024,33.32,26.546,2.258,0.201,5.22e6,0,9.058,0.704,0.704,0.3,0.278,0.125,0.042,0.095,-4.132e-4,0,0,0,0,3.309e-4,8.916e-4,3,7.069,86.005,-0.01,6.695,57.097,994.171,1114.659,0.05,0.098
2.341,544.806,219.803,-2.442,220.019,2.444,22.071,-0.004,22.071,-0.01,9.744,0.093,28.61,-80.6,0.998,0.042,2.454e-8,-0.014,4.511e-4,615.419,47.7,1.991,0.024,33.392,26.546,2.282,0.198,5.125e6,0,8.73,0.704,0.704,0.3,0.278,0.125,0.007,0.016,-3.423e-4,0,0,0,0,-7.313e-4,8.758e-4,3,7.069,85.771,-0.023,6.306,57.057,993.774,1114.615,0.05,0.099
2.391,555.699,215.912,-2.394,216.127,2.394,22.556,-0.004,22.556,-0.01,9.644,0.052,28.61,-80.6,0.998,0.178,-1.011e-7,-0.009,1.325e-4,615.419,47.7,1.991,0.024,33.345,26.546,2.267,0.194,5.034e6,0,8.42,0.703,0.703,0.3,0.278,0.125,0.029,0.065,1.495e-4,0,0,0,0,-3.443e-4,8.603e-4,3,7.069,85.551,-0.024,6.428,57.018,993.385,1114.573,0.05,0.1
2.441,566.399,212.1,-2.345,212.316,2.345,23.036,-0.004,23.036,-0.01,9.573,0.046,28.61,-80.6,0.998,0.2,-8.713e-9,-0.003,4.52e-5,615.419,47.7,1.991,0.024,33.337,26.546,2.264,0.191,4.944e6,0,8.122,0.703,0.703,0.3,0.278,0.125,0.032,0.073,3.796e-4,0,0,0,0,-4.954e-5,8.452e-4,3,7.069,85.436,-0.014,6.599,56.98,993.002,1114.53,0.05,0.102
2.491,576.91,208.367,-2.296,208.583,2.297,23.513,-0.004,23.513,-0.01,9.487,0.064,28.61,-80.6,0.998,0.136,-5.875e-8,0.002,8.435e-5,615.419,47.7,1.991,0.024,33.358,26.546,2.271,0.188,4.857e6,0,7.834,0.703,0.703,0.301,0.278,0.125,0.022,0.049,1.841e-4,0,0,0,0,1.217e-5,8.303e-4,3,7.069,85.429,4.308e-4,6.678,56.943,992.627,1114.489,0.05,0.103
2.541,587.237,204.713,-2.248,204.927,2.25,23.984,-0.004,23.984,-0.01,9.37,0.079,28.61,-80.6,0.998,0.072,-8.638e-9,0.005,1.199e-4,615.419,47.7,1.991,0.024,33.379,26.546,2.278,0.184,4.77e6,0,7.557,0.702,0.702,0.301,0.278,0.124,0.011,0.026,3.395e-4,0,0,0,0,9.525e-5,8.158e-4,3,7.069,85.494,0.013,6.512,56.906,992.257,1114.448,0.05,0.104
2.591,597.383,201.134,-2.201,201.345,2.204,24.449,-0.004,24.449,-0.01,9.211,0.12,28.61,-80.6,0.998,0.094,-8.431e-8,-0.005,1.1e-4,615.419,47.7,1.991,0.024,33.37,26.546,2.275,0.181,4.686e6,0,7.292,0.702,0.702,0.301,0.277,0.124,0.015,0.035,3.479e-4,0,0,0,0,-9.716e-5,8.015e-4,3,7.069,85.587,0.017,6.667,56.87,991.895,1114.408,0.05,0.105
2.641,607.351,197.629,-2.157,197.834,2.162,24.904,-0.004,24.904,-0.01,8.995,0.139,28.61,-80.6,0.998,0.185,-5.603e-8,-4.737e-4,1.631e-5,615.419,47.7,1.991,0.024,33.339,26.546,2.265,0.178,4.604e6,0,7.037,0.702,0.702,0.301,0.277,0.124,0.03,0.068,4.474e-4,0,0,0,0,-1.048e-6,7.875e-4,3,7.069,85.637,0.013,6.75,56.834,991.538,1114.369,0.05,0.105
2.691,617.147,194.192,-2.117,194.39,2.121,25.349,-0.004,25.349,-0.01,8.769,0.138,28.61,-80.6,0.998,0.197,-7.623e-8,0.005,2.112e-5,615.419,47.7,1.991,0.024,33.335,26.546,2.263,0.175,4.523e6,0,6.791,0.702,0.702,0.301,0.277,0.124,0.032,0.071,-3.842e-5,0,0,0,0,9.932e-5,7.738e-4,3,7.069,85.598,0.004,6.861,56.799,991.188,1114.331,0.05,0.106
2.741,626.772,190.818,-2.079,191.01,2.082,25.782,-0.004,25.782,-0.009,8.562,0.116,28.61,-80.6,0.998,0.119,-3.314e-8,0.009,2.796e-5,615.419,47.7,1.991,0.024,33.36,26.546,2.271,0.172,4.444e6,0,6.554,0.702,0.702,0.301,0.277,0.124,0.019,0.043,3.521e-4,0,0,0,0,3.728e-4,7.603e-4,3,7.069,85.472,-0.002,6.944,56.765,990.844,1114.293,0.05,0.107
2.791,636.229,187.502,-2.044,187.691,2.045,26.206,-0.004,26.206,-0.009,8.413,0.069,28.61,-80.6,0.998,0.071,-4.519e-8,-0.009,4.078e-5,615.419,47.7,1.991,0.024,33.375,26.546,2.277,0.169,4.365e6,0,6.324,0.701,0.701,0.301,0.277,0.124,0.011,0.027,-4.135e-4,0,0,0,0,-4.526e-4,7.471e-4,3,7.069,85.301,-0.001,6.743,56.731,990.506,1114.255,0.05,0.108
2.841,645.523,184.241,-2.009,184.429,2.01,26.624,-0.004,26.624,-0.009,8.323,0.05,28.61,-80.6,0.998,0.155,-6.892e-8,-0.006,2.004e-5,615.419,47.7,1.991,0.024,33.347,26.546,2.267,0.166,4.289e6,0,6.104,0.701,0.701,0.301,0.277,0.124,0.025,0.056,-3.152e-4,0,0,0,0,-2.133e-4,7.341e-4,3,7.069,85.156,0.002,6.771,56.698,990.174,1114.219,0.05,0.108
2.891,654.655,181.037,-1.974,181.225,1.974,27.038,-0.004,27.038,-0.009,8.241,0.056,28.61,-80.6,0.998,0.128,-3.943e-8,-0.003,-2.349e-6,615.419,47.7,1.991,0.024,33.355,26.546,2.27,0.163,4.214e6,0,5.892,0.701,0.701,0.301,0.277,0.123,0.021,0.046,-4.407e-4,0,0,0,0,-5.215e-5,7.214e-4,3,7.069,85.074,0.006,6.952,56.665,989.847,1114.183,0.05,0.109
2.941,663.627,177.892,-1.938,178.077,1.939,27.448,-0.004,27.448,-0.009,8.131,0.082,28.61,-80.6,0.998,0.002,-3.867e-8,-0.001,-4.556e-4,615.419,47.7,1.991,0.024,33.397,26.546,2.284,0.16,4.141e6,0,5.688,0.701,0.701,0.301,0.277,0.123,2.573e-4,1.024e-4,-4.909e-4,0,0,0,0,-1.244e-5,7.089e-4,3,7.069,85.038,0.008,7.318,56.633,989.527,1114.147,0.05,0.11
2.991,672.445,174.802,-1.905,174.984,1.906,27.851,-0.004,27.851,-0.009,7.997,0.08,28.61,-80.6,0.998,8.758e-4,-5.334e-8,0,0,615.419,47.7,1.991,0.024,33.397,26.546,2.284,0.157,4.068e6,0,5.49,0.701,0.701,0.301,0.277,0.123,1.398e-4,1.086e-4,-1.629e-5,0,0,0,0,0,6.966e-4,3,7.069,85.01,0.01,7.27,56.602,989.211,1114.113,0.05,0.111
3.041,681.108,171.763,-1.874,171.943,1.875,28.248,-0.004,28.248,-0.008,7.875,0.071,28.61,-80.6,0.998,0.031,-5.278e-8,-0.001,-1.624e-5,615.419,47.7,1.991,0.024,33.386,26.546,2.28,0.155,3.997e6,0,5.298,0.7,0.7,0.301,0.276,0.123,0.005,0.012,4.791e-4,0,0,0,0,-1.213e-5,6.844e-4,3,7.069,84.981,0.011,7.112,56.571,988.902,1114.079,0.05,0.111
3.091,689.622,168.772,-1.844,168.951,1.845,28.639,-0.004,28.639,-0.008,7.776,0.052,28.61,-80.6,0.998,0.117,-5.243e-8,-2.048e-5,-2.991e-5,615.419,47.7,1.991,0.024,33.357,26.546,2.27,0.152,3.926e6,0,5.112,0.7,0.7,0.301,0.276,0.123,0.019,0.042,-3.211e-4,0,0,0,0,0,6.725e-4,3,7.069,84.966,0.007,6.736,56.541,988.597,1114.045,0.05,0.112
3.141,697.987,165.83,-1.814,166.008,1.815,29.025,-0.004,29.025,-0.008,7.686,0.064,28.61,-80.6,0.998,0.046,-4.974e-8,0.002,-1.134e-5,615.419,47.7,1.991,0.024,33.38,26.546,2.278,0.149,3.857e6,0,4.933,0.7,0.7,0.301,0.276,0.123,0.007,0.016,2.042e-4,0,0,0,0,2.317e-5,6.608e-4,3,7.069,84.985,0.003,6.732,56.511,988.298,1114.012,0.05,0.113
3.191,706.205,162.935,-1.786,163.112,1.786,29.407,-0.004,29.407,-0.008,7.59,0.052,28.61,-80.6,0.998,0.093,-6.382e-8,0.003,-3.572e-5,615.419,47.7,1.991,0.024,33.364,26.546,2.273,0.147,3.788e6,0,4.759,0.7,0.7,0.301,0.276,0.123,0.015,0.034,-4.146e-4,0,0,0,0,5.109e-5,6.493e-4,3,7.069,85.026,0.001,6.326,56.482,988.005,1113.98,0.05,0.118
3.241,714.281,160.086,-1.757,160.262,1.758,29.784,-0.004,29.784,-0.007,7.499,0.065,28.61,-80.6,0.998,0.004,-4.751e-8,0.004,-5.67e-4,615.419,47.7,1.991,0.024,33.394,26.546,2.283,0.144,3.722e6,0,4.593,0.7,0.7,0.301,0.276,0.123,6.089e-4,0.002,3.201e-4,0,0,0,0,1.097e-4,6.38e-4,3,7.069,85.089,-0.001,6.247,56.453,987.716,1113.948,0.05,0.12
3.291,722.215,157.281,-1.731,157.455,1.732,30.157,-0.004,30.157,-0.007,7.403,0.049,28.61,-80.6,0.998,0.082,-4.666e-8,0.004,-5.61e-5,615.419,47.7,1.991,0.024,33.367,26.546,2.274,0.142,3.655e6,0,4.429,0.7,0.7,0.301,0.276,0.123,0.013,0.03,1.277e-4,0,0,0,0,1.362e-4,6.268e-4,3,7.069,85.162,-0.004,5.679,56.424,987.432,1113.917,0.05,0.121
3.341,730.01,154.519,-1.703,154.692,1.705,30.525,-0.004,30.525,-0.007,7.308,0.076,28.61,-80.6,0.998,0.104,-5.245e-8,-0.005,-3.265e-5,615.419,47.7,1.991,0.024,33.359,26.546,2.271,0.139,3.591e6,0,4.274,0.699,0.7,0.301,0.276,0.123,0.017,0.038,-2.318e-4,0,0,0,0,-1.695e-4,6.158e-4,3,7.069,85.248,-0.005,5.825,56.397,987.154,1113.886,0.05,0.122
3.391,737.667,151.801,-1.677,151.97,1.679,30.887,-0.004,30.887,-0.007,7.171,0.089,28.61,-80.6,0.998,0.206,-5.558e-8,-0.002,-1.194e-5,615.419,47.7,1.991,0.024,33.325,26.546,2.26,0.137,3.527e6,0,4.125,0.699,0.699,0.301,0.276,0.122,0.033,0.074,3.386e-5,0,0,0,0,-2.63e-5,6.05e-4,3,7.069,85.308,-0.003,5.848,56.369,986.88,1113.856,0.05,0.122
3.441,745.19,149.123,-1.653,149.288,1.655,31.242,-0.004,31.242,-0.007,7.028,0.086,28.61,-80.6,0.998,0.21,-4.996e-8,0.001,-3.764e-5,615.419,47.7,1.991,0.024,33.323,26.546,2.259,0.134,3.464e6,0,3.979,0.699,0.699,0.301,0.276,0.122,0.034,0.076,-2.19e-4,0,0,0,0,1.498e-5,5.943e-4,3,7.069,85.312,0.002,5.754,56.343,986.611,1113.826,0.05,0.124
3.491,752.58,146.483,-1.629,146.645,1.632,31.59,-0.004,31.59,-0.007,6.883,0.096,28.61,-80.6,0.998,0.291,-5.818e-8,0.005,-3.044e-5,615.419,47.7,1.991,0.024,33.296,26.546,2.25,0.132,3.403e6,0,3.84,0.699,0.699,0.301,0.276,0.122,0.047,0.106,1.125e-4,0,0,0,0,2.02e-4,5.838e-4,3,7.069,85.255,0.008,6.027,56.316,986.347,1113.797,0.05,0.124
3.541,759.839,143.881,-1.606,144.038,1.609,31.93,-0.004,31.93,-0.007,6.724,0.1,28.61,-80.6,0.998,0.332,-5.437e-8,0.009,-2.841e-5,615.419,47.7,1.991,0.024,33.282,26.546,2.245,0.13,3.343e6,0,3.705,0.699,0.699,0.301,0.276,0.122,0.054,0.12,7.521e-5,0,0,0,0,7.784e-4,5.734e-4,3,7.069,85.125,0.012,6.392,56.29,986.087,1113.768,0.05,0.126
3.591,766.969,141.315,-1.584,141.467,1.588,32.262,-0.004,32.262,-0.006,6.559,0.105,28.61,-80.6,0.998,0.381,-8.785e-8,0.014,-3.618e-5,615.419,47.7,1.991,0.024,33.265,26.546,2.24,0.127,3.284e6,0,3.576,0.699,0.699,0.301,0.276,0.122,0.062,0.137,4.864e-4,0,0,0,0,0.002,5.631e-4,3,7.069,84.911,0.013,6.978,56.265,985.832,1113.74,0.05,0.127
3.641,773.971,138.782,-1.566,138.93,1.567,32.586,-0.004,32.586,-0.006,6.421,0.061,28.61,-80.6,0.998,0.052,-6.941e-8,0.018,-1.559e-4,615.419,47.7,1.991,0.024,33.374,26.546,2.276,0.125,3.224e6,0,3.446,0.699,0.699,0.301,0.276,0.122,0.008,0.016,-2.49e-4,0,0,0,0,0.003,5.53e-4,3,7.069,84.618,0.011,6.77,56.24,985.582,1113.713,0.05,0.129
3.691,780.848,136.275,-1.549,136.424,1.549,32.905,-0.004,32.905,-0.006,6.356,0.025,28.61,-80.6,0.998,0.242,-5.063e-8,-0.016,-3.612e-5,615.419,47.7,1.991,0.024,33.311,26.546,2.255,0.123,3.166e6,0,3.322,0.699,0.699,0.301,0.276,0.122,0.039,0.09,-2.164e-4,0,0,0,0,-0.002,5.431e-4,3,7.069,84.312,0.006,6.621,56.215,985.336,1113.686,0.05,0.13
3.741,787.599,133.797,-1.531,133.947,1.531,33.223,-0.003,33.223,-0.006,6.332,0.009,28.61,-80.6,0.998,0.384,-4.26e-8,-0.012,-2.354e-5,615.419,47.7,1.991,0.024,33.263,26.546,2.239,0.121,3.108e6,0,3.203,0.699,0.699,0.301,0.275,0.122,0.062,0.14,3.992e-4,0,0,0,0,-0.001,5.332e-4,3,7.069,84.059,6.053e-4,6.676,56.191,985.095,1113.659,0.05,0.131
3.791,794.228,131.35,-1.512,131.501,1.512,33.539,-0.003,33.539,-0.006,6.316,0.015,28.61,-80.6,0.998,0.342,-3.755e-8,-0.007,-1.566e-5,615.419,47.7,1.991,0.024,33.277,26.546,2.244,0.119,3.052e6,0,3.088,0.698,0.699,0.301,0.275,0.122,0.055,0.124,-2.152e-4,0,0,0,0,-5.778e-4,5.235e-4,3,7.069,83.887,-0.005,6.958,56.168,984.858,1113.633,0.05,0.133
3.841,800.735,128.932,-1.494,129.086,1.494,33.854,-0.003,33.854,-0.006,6.3,0.003,28.61,-80.6,0.998,0.448,-4.759e-8,-0.003,-1.89e-6,615.419,47.7,1.991,0.024,33.242,26.546,2.232,0.116,2.995e6,0,2.975,0.698,0.699,0.301,0.275,0.122,0.073,0.163,-8.457e-5,0,0,0,0,-1.106e-4,5.139e-4,3,7.069,83.792,-0.008,6.702,56.144,984.625,1113.607,0.05,0.134
3.891,807.122,126.543,-1.475,126.7,1.475,34.169,-0.003,34.169,-0.006,6.295,0.007,28.61,-80.6,0.998,0.412,-5.416e-8,0.002,-1.323e-5,615.419,47.7,1.991,0.024,33.253,26.546,2.236,0.114,2.94e6,0,2.865,0.698,0.699,0.301,0.275,0.122,0.067,0.149,2.875e-5,0,0,0,0,3.75e-5,5.044e-4,3,7.069,83.783,-0.01,6.569,56.122,984.397,1113.582,0.05,0.135
3.941,813.39,124.186,-1.455,124.344,1.456,34.483,-0.003,34.483,-0.005,6.268,0.029,28.61,-80.6,0.998,0.199,-5.529e-8,0.005,-2.298e-5,615.419,47.7,1.991,0.024,33.323,26.546,2.259,0.112,2.885e6,0,2.759,0.698,0.698,0.301,0.275,0.122,0.032,0.072,-4.796e-4,0,0,0,0,3.126e-4,4.95e-4,3,7.069,83.85,-0.008,6.682,56.099,984.173,1113.558,0.05,0.136
3.991,819.541,121.861,-1.436,122.019,1.437,34.795,-0.003,34.795,-0.005,6.203,0.05,28.61,-80.6,0.998,0.035,-4.626e-8,-0.006,-1.406e-4,615.419,47.7,1.991,0.024,33.378,26.546,2.277,0.11,2.831e6,0,2.657,0.698,0.698,0.301,0.275,0.122,0.006,0.013,-1.261e-4,0,0,0,0,-4.29e-4,4.858e-4,3,7.069,83.954,-0.005,6.788,56.077,983.953,1113.533,0.05,0.137
4.041,825.576,119.565,-1.419,119.722,1.42,35.103,-0.003,35.103,-0.005,6.116,0.054,28.61,-80.6,0.998,0.105,-4.799e-8,-0.005,-3.992e-5,615.419,47.7,1.991,0.024,33.354,26.546,2.27,0.108,2.778e6,0,2.557,0.698,0.698,0.301,0.275,0.122,0.017,0.039,4.883e-4,0,0,0,0,-3.269e-4,4.766e-4,3,7.069,84.055,7.011e-4,6.56,56.056,983.737,1113.51,0.05,0.137
4.091,831.498,117.296,-1.402,117.451,1.403,35.407,-0.003,35.407,-0.005,6.025,0.059,28.61,-80.6,0.998,0.182,-4.398e-8,-0.004,-3.187e-5,615.419,47.7,1.991,0.024,33.328,26.546,2.261,0.106,2.724e6,0,2.46,0.698,0.698,0.301,0.275,0.121,0.029,0.066,-4.828e-4,0,0,0,0,-1.921e-4,4.676e-4,3,7.069,84.136,0.008,6.399,56.035,983.526,1113.486,0.05,0.138
4.141,837.306,115.054,-1.386,115.206,1.387,35.705,-0.003,35.705,-0.005,5.921,0.07,28.61,-80.6,0.998,0.335,-4.502e-8,-0.002,-2.851e-5,615.419,47.7,1.991,0.024,33.277,26.546,2.244,0.104,2.672e6,0,2.367,0.698,0.698,0.301,0.275,0.121,0.054,0.121,8.156e-5,0,0,0,0,-3.089e-5,4.586e-4,3,7.069,84.185,0.015,6.48,56.014,983.318,1113.463,0.05,0.139
4.191,843.004,112.837,-1.37,112.987,1.372,35.999,-0.003,35.999,-0.005,5.805,0.072,28.61,-80.6,0.998,0.384,-4.201e-8,0.002,-2.405e-5,615.419,47.7,1.991,0.024,33.261,26.546,2.238,0.102,2.621e6,0,2.277,0.698,0.698,0.301,0.275,0.121,0.062,0.139,4.705e-4,0,0,0,0,4.368e-5,4.498e-4,3,7.069,84.183,0.02,6.458,55.994,983.114,1113.441,0.05,0.139
4.241,848.591,110.644,-1.357,110.79,1.358,36.286,-0.003,36.286,-0.005,5.698,0.058,28.61,-80.6,0.998,0.249,-5.099e-8,0.005,-4.221e-5,615.419,47.7,1.991,0.024,33.305,26.546,2.253,0.1,2.569e6,0,2.188,0.698,0.698,0.301,0.275,0.121,0.04,0.09,1.93e-4,0,0,0,0,3.016e-4,4.411e-4,3,7.069,84.124,0.022,6.172,55.974,982.915,1113.419,0.05,0.14
4.291,854.068,108.472,-1.343,108.617,1.344,36.569,-0.003,36.569,-0.005,5.605,0.06,28.61,-80.6,0.998,0.294,-5.458e-8,0.006,-3.85e-5,615.419,47.7,1.991,0.024,33.29,26.546,2.248,0.098,2.519e6,0,2.103,0.697,0.698,0.301,0.275,0.121,0.047,0.106,-6.623e-6,0,0,0,0,6.472e-4,4.324e-4,3,7.069,84.025,0.022,6.311,55.954,982.719,1113.397,0.05,0.141
4.341,859.438,106.323,-1.329,106.466,1.33,36.846,-0.003,36.846,-0.005,5.508,0.059,28.61,-80.6,0.998,0.297,-6.154e-8,0.009,-3.48e-5,615.419,47.7,1.991,0.024,33.289,26.546,2.248,0.096,2.47e6,0,2.021,0.697,0.698,0.301,0.275,0.121,0.048,0.107,1.947e-4,0,0,0,0,0.001,4.238e-4,3,7.069,83.886,0.021,6.441,55.935,982.527,1113.376,0.05,0.142
4.391,864.701,104.195,-1.317,104.336,1.318,37.12,-0.003,37.12,-0.005,5.426,0.041,28.61,-80.6,0.998,0.076,-3.609e-8,0.01,-1.25e-4,615.419,47.7,1.991,0.024,33.362,26.546,2.272,0.094,2.42e6,0,1.94,0.697,0.697,0.301,0.275,0.121,0.012,0.026,-1.711e-5,0,0,0,0,0.002,4.154e-4,3,7.069,83.71,0.017,6.196,55.916,982.339,1113.355,0.05,0.142
4.441,869.858,102.085,-1.306,102.226,1.306,37.39,-0.003,37.39,-0.004,5.372,0.028,28.61,-80.6,0.998,0.106,-3.435e-8,-0.01,-8.512e-5,615.419,47.7,1.991,0.024,33.352,26.546,2.269,0.092,2.37e6,0,1.862,0.697,0.697,0.301,0.275,0.121,0.017,0.04,4.942e-4,0,0,0,0,-0.002,4.07e-4,3,7.069,83.523,0.013,6.021,55.898,982.154,1113.335,0.05,0.143
4.491,874.91,99.993,-1.295,100.136,1.295,37.657,-0.003,37.657,-0.004,5.34,0.013,28.61,-80.6,0.998,0.325,-4.398e-8,-0.009,-3.205e-5,615.419,47.7,1.991,0.024,33.279,26.546,2.244,0.09,2.321e6,0,1.786,0.697,0.697,0.301,0.275,0.121,0.052,0.12,-1.789e-4,0,0,0,0,-0.001,3.986e-4,3,7.069,83.352,0.009,5.737,55.88,981.974,1113.315,0.05,0.144
4.541,879.858,97.92,-1.282,98.064,1.282,37.924,-0.003,37.924,-0.004,5.315,0.021,28.61,-80.6,0.998,0.195,-4.485e-8,-0.007,-1.169e-5,615.419,47.7,1.991,0.024,33.322,26.546,2.259,0.089,2.274e6,0,1.714,0.697,0.697,0.301,0.275,0.121,0.031,0.072,2.975e-4,0,0,0,0,-8.429e-4,3.904e-4,3,7.069,83.215,0.003,5.997,55.862,981.797,1113.296,0.05,0.144
4.591,884.702,95.868,-1.269,96.013,1.269,38.188,-0.003,38.188,-0.004,5.272,0.032,28.61,-80.6,0.998,0.016,-4.759e-8,-0.006,3.911e-4,615.419,47.7,1.991,0.024,33.381,26.546,2.279,0.087,2.228e6,0,1.644,0.697,0.697,0.301,0.275,0.121,0.003,0.006,-3.211e-4,0,0,0,0,-7.283e-4,3.822e-4,3,7.069,83.101,-0.001,6.304,55.845,981.624,1113.277,0.05,0.145
4.641,889.445,93.836,-1.258,93.981,1.258,38.451,-0.003,38.451,-0.004,5.221,0.029,28.61,-80.6,0.998,0.051,-3.948e-8,-0.006,1.475e-4,615.419,47.7,1.991,0.024,33.369,26.546,2.275,0.085,2.18e6,0,1.575,0.697,0.697,0.301,0.275,0.121,0.008,0.02,7.913e-5,0,0,0,0,-7.408e-4,3.742e-4,3,7.069,82.992,-0.004,6.228,55.828,981.454,1113.258,0.05,0.146
4.691,894.086,91.821,-1.248,91.967,1.248,38.711,-0.002,38.711,-0.004,5.181,0.02,28.61,-80.6,0.998,0.193,-3.773e-8,-0.005,3.445e-5,615.419,47.7,1.991,0.024,33.322,26.546,2.259,0.083,2.133e6,0,1.508,0.697,0.697,0.301,0.275,0.121,0.031,0.07,-2.226e-4,0,0,0,0,-5.993e-4,3.661e-4,3,7.069,82.89,-0.006,5.957,55.812,981.288,1113.24,0.05,0.146
4.741,898.627,89.822,-1.236,89.97,1.237,38.969,-0.002,38.969,-0.004,5.146,0.026,28.61,-80.6,0.998,0.088,-4.109e-8,-0.004,7.69e-5,615.419,47.7,1.991,0.024,33.357,26.546,2.27,0.081,2.087e6,0,1.444,0.697,0.697,0.301,0.275,0.121,0.014,0.033,2.595e-4,0,0,0,0,-4.215e-4,3.582e-4,3,7.069,82.804,-0.006,6.054,55.795,981.126,1113.222,0.05,0.147
4.791,903.069,87.844,-1.223,87.991,1.224,39.225,-0.002,39.225,-0.003,5.087,0.049,28.61,-80.6,0.998,0.375,-3.967e-8,0.005,1.32e-5,615.419,47.7,1.991,0.024,33.261,26.546,2.239,0.08,2.044e6,0,1.384,0.697,0.697,0.301,0.275,0.121,0.061,0.134,1.056e-4,0,0,0,0,5.762e-4,3.503e-4,3,7.069,82.723,-0.006,6.718,55.78,980.967,1113.204,0.05,0.148
4.841,907.412,85.884,-1.214,86.03,1.215,39.477,-0.002,39.477,-0.003,5.01,0.042,28.61,-80.6,0.998,0.262,-4.328e-8,0.007,2.005e-5,615.419,47.7,1.991,0.024,33.298,26.546,2.251,0.078,1.998e6,0,1.323,0.697,0.697,0.301,0.275,0.121,0.042,0.094,-4.112e-4,0,0,0,0,0.001,3.425e-4,3,7.069,82.615,-0.004,6.522,55.764,980.812,1113.187,0.05,0.148
4.891,911.657,83.938,-1.205,84.084,1.205,39.726,-0.002,39.726,-0.003,4.946,0.039,28.61,-80.6,0.998,0.239,-4.449e-8,0.008,7.411e-6,615.419,47.7,1.991,0.024,33.306,26.546,2.253,0.076,1.953e6,0,1.264,0.697,0.697,0.301,0.275,0.121,0.038,0.085,9.637e-5,0,0,0,0,0.002,3.348e-4,3,7.069,82.481,-0.002,6.487,55.749,980.66,1113.17,0.05,0.149
4.941,915.806,82.007,-1.196,82.153,1.197,39.972,-0.002,39.972,-0.003,4.892,0.027,28.61,-80.6,0.998,0.005,-4.662e-8,-0.009,9.44e-4,615.419,47.7,1.991,0.024,33.384,26.546,2.28,0.074,1.907e6,0,1.205,0.697,0.697,0.301,0.275,0.121,7.5e-4,0.004,-2.613e-4,0,0,0,0,-0.002,3.271e-4,3,7.069,82.33,0.001,6.143,55.734,980.512,1113.154,0.05,0.151
4.991,919.858,80.089,-1.187,80.236,1.188,40.216,-0.002,40.216,-0.003,4.852,0.025,28.61,-80.6,0.998,0.029,-4.781e-8,-0.008,3.005e-5,615.419,47.7,1.991,0.024,33.376,26.546,2.277,0.073,1.863e6,0,1.15,0.697,0.697,0.301,0.275,0.121,0.005,0.013,-2.421e-4,0,0,0,0,-0.002,3.195e-4,3,7.069,82.177,0.005,6.108,55.72,980.367,1113.138,0.05,0.152
5.041,923.815,78.186,-1.179,78.334,1.179,40.457,-0.002,40.457,-0.003,4.814,0.022,28.61,-80.6,0.998,0.093,-3.035e-8,-0.008,-2.672e-5,615.419,47.7,1.991,0.024,33.354,26.546,2.27,0.071,1.819e6,0,1.096,0.697,0.697,0.301,0.274,0.121,0.015,0.035,-4.001e-4,0,0,0,0,-0.002,3.119e-4,3,7.069,82.028,0.009,6.007,55.706,980.226,1113.123,0.05,0.153
5.091,927.677,76.297,-1.169,76.446,1.17,40.697,-0.002,40.697,-0.003,4.775,0.028,28.61,-80.6,0.998,0.094,-4.037e-8,0.008,-1.164e-4,615.419,47.7,1.991,0.024,33.354,26.546,2.269,0.069,1.776e6,0,1.046,0.697,0.697,0.301,0.274,0.121,0.015,0.032,-2.366e-4,0,0,0,0,0.002,3.044e-4,3,7.069,81.883,0.013,6.235,55.692,980.087,1113.107,0.05,0.153
5.141,931.445,74.424,-1.16,74.573,1.16,40.935,-0.002,40.935,-0.003,4.719,0.042,28.61,-80.6,0.998,0.468,-4.383e-8,0.009,-4.824e-5,615.419,47.7,1.991,0.024,33.23,26.546,2.228,0.068,1.735e6,0,0.998,0.696,0.697,0.301,0.274,0.121,0.076,0.167,-2.118e-4,0,0,0,0,0.003,2.969e-4,3,7.069,81.731,0.016,6.722,55.678,979.953,1113.093,0.05,0.154
5.191,935.12,72.565,-1.151,72.714,1.152,41.169,-0.002,41.169,-0.003,4.648,0.044,28.61,-80.6,0.998,0.571,-3.736e-8,0.011,-4.259e-5,615.419,47.7,1.991,0.024,33.196,26.546,2.217,0.066,1.693e6,0,0.95,0.696,0.697,0.301,0.274,0.121,0.093,0.202,-2.621e-6,0,0,0,0,0.004,2.895e-4,3,7.069,81.551,0.017,6.873,55.665,979.821,1113.078,0.05,0.155
5.241,938.702,70.721,-1.142,70.868,1.143,41.399,-0.002,41.399,-0.003,4.569,0.055,28.61,-80.6,0.998,0.923,-4.711e-8,0.013,-3.371e-5,615.419,47.7,1.991,0.024,33.084,26.546,2.179,0.064,1.652e6,0,0.907,0.696,0.698,0.301,0.274,0.121,0.152,0.325,-1.44e-4,0,0,0,0,0.006,2.822e-4,3,7.069,81.332,0.018,7.382,55.652,979.693,1113.064,0.05,0.156
5.291,942.192,68.888,-1.136,69.035,1.137,41.626,-0.002,41.626,-0.002,4.491,0.038,28.61,-80.6,0.998,0.49,-4.122e-8,0.016,-5.904e-5,615.419,47.7,1.991,0.024,33.222,26.546,2.226,0.063,1.609e6,0,0.858,0.696,0.697,0.301,0.274,0.121,0.079,0.167,5.882e-5,0,0,0,0,0.01,2.749e-4,3,7.069,81.065,0.018,6.944,55.64,979.569,1113.05,0.05,0.156
5.341,945.591,67.065,-1.13,67.212,1.13,41.849,-0.002,41.849,-0.002,4.437,0.031,28.61,-80.6,0.998,0.292,-4.773e-8,0.017,-9.32e-5,615.419,47.7,1.991,0.024,33.287,26.546,2.247,0.061,1.566e6,0,0.813,0.696,0.696,0.301,0.274,0.12,0.047,0.094,-2.877e-4,0,0,0,0,0.011,2.676e-4,3,7.069,80.767,0.018,6.813,55.628,979.447,1113.037,0.05,0.157
5.391,948.899,65.251,-1.126,65.399,1.126,42.07,-0.002,42.07,-0.002,4.402,0.011,28.61,-80.6,0.998,0.356,-3.101e-8,-0.017,-7.393e-5,615.419,47.7,1.991,0.024,33.266,26.546,2.24,0.059,1.522e6,0,0.768,0.696,0.697,0.301,0.274,0.12,0.057,0.14,2.216e-4,0,0,0,0,-0.012,2.604e-4,3,7.069,80.459,0.017,6.147,55.616,979.329,1113.024,0.05,0.157
5.441,952.116,63.445,-1.12,63.596,1.12,42.289,-0.002,42.289,-0.002,4.391,0.004,28.61,-80.6,0.998,0.598,-2.716e-8,-0.015,-4.366e-5,615.419,47.7,1.991,0.024,33.187,26.546,2.214,0.058,1.48e6,0,0.727,0.696,0.697,0.301,0.274,0.12,0.097,0.226,-2.513e-4,0,0,0,0,-0.01,2.533e-4,3,7.069,80.168,0.016,5.92,55.605,979.214,1113.011,0.05,0.158
5.491,955.243,61.648,-1.114,61.804,1.114,42.509,-0.001,42.509,-0.002,4.387,7.922e-4,28.61,-80.6,0.998,0.738,-4.396e-8,-0.014,-2.872e-5,615.419,47.7,1.991,0.024,33.142,26.546,2.199,0.056,1.439e6,0,0.687,0.696,0.697,0.301,0.274,0.12,0.121,0.274,3.52e-4,0,0,0,0,-0.009,2.461e-4,3,7.069,79.908,0.015,5.768,55.593,979.102,1112.999,0.05,0.158
5.541,958.281,59.86,-1.109,60.021,1.109,42.728,-0.001,42.728,-0.002,4.391,0.006,28.61,-80.6,0.998,1.016,-4.262e-8,-0.011,-2.262e-5,615.419,47.7,1.991,0.024,33.054,26.546,2.169,0.054,1.397e6,0,0.648,0.696,0.698,0.301,0.274,0.12,0.168,0.371,1.731e-4,0,0,0,0,-0.006,2.39e-4,3,7.069,79.683,0.014,5.412,55.583,978.993,1112.987,0.05,0.159
5.591,961.229,58.081,-1.102,58.248,1.102,42.948,-0.001,42.948,-0.002,4.4,0.004,28.61,-80.6,0.998,0.949,-4.304e-8,-0.009,-1.691e-5,615.419,47.7,1.991,0.024,33.075,26.546,2.176,0.053,1.356e6,0,0.611,0.696,0.698,0.301,0.274,0.12,0.156,0.345,2.828e-4,0,0,0,0,-0.004,2.32e-4,3,7.069,79.501,0.012,5.371,55.572,978.888,1112.975,0.05,0.16
5.641,964.089,56.315,-1.093,56.486,1.093,43.168,-0.001,43.168,-0.002,4.394,0.012,28.61,-80.6,0.998,0.262,-4.585e-8,-0.007,-1.799e-5,615.419,47.7,1.991,0.024,33.296,26.546,2.25,0.051,1.318e6,0,0.576,0.696,0.696,0.301,0.274,0.12,0.042,0.098,4.981e-5,0,0,0,0,-0.003,2.25e-4,3,7.069,79.356,0.011,5.925,55.562,978.786,1112.964,0.05,0.16
5.691,966.861,54.563,-1.086,54.737,1.086,43.387,-0.001,43.387,-0.001,4.366,0.021,28.61,-80.6,0.998,0.211,-4.35e-8,0.007,1.691e-5,615.419,47.7,1.991,0.024,33.313,26.546,2.256,0.05,1.28e6,0,0.543,0.696,0.696,0.301,0.274,0.12,0.034,0.073,1.453e-4,0,0,0,0,0.003,2.18e-4,3,7.069,79.223,0.009,6.23,55.552,978.687,1112.953,0.05,0.161
5.741,969.546,52.821,-1.079,52.998,1.08,43.604,-0.001,43.604,-0.001,4.326,0.028,28.61,-80.6,0.998,0.605,-4.372e-8,0.008,1.783e-5,615.419,47.7,1.991,0.024,33.184,26.546,2.213,0.048,1.241e6,0,0.511,0.696,0.697,0.301,0.274,0.12,0.099,0.214,-4.528e-4,0,0,0,0,0.004,2.111e-4,3,7.069,79.083,0.008,6.443,55.542,978.591,1112.942,0.05,0.161
5.791,972.143,51.09,-1.073,51.269,1.073,43.82,-9.217e-4,43.82,-0.001,4.275,0.036,28.61,-80.6,0.998,1.084,-4.515e-8,0.01,1.927e-5,615.419,47.7,1.991,0.024,33.032,26.546,2.162,0.047,1.203e6,0,0.481,0.696,0.698,0.302,0.274,0.12,0.18,0.382,1.57e-4,0,0,0,0,0.006,2.042e-4,3,7.069,78.922,0.007,6.736,55.533,978.498,1112.932,0.05,0.162
5.841,974.655,49.368,-1.069,49.548,1.069,44.032,-8.302e-4,44.032,-0.001,4.223,0.027,28.61,-80.6,0.998,0.698,-4.365e-8,0.011,2.589e-5,615.419,47.7,1.991,0.024,33.154,26.546,2.203,0.045,1.162e6,0,0.448,0.696,0.697,0.302,0.274,0.12,0.114,0.241,-1.079e-4,0,0,0,0,0.009,1.974e-4,3,7.069,78.731,0.005,6.24,55.524,978.408,1112.922,0.05,0.163
5.891,977.08,47.653,-1.063,47.836,1.063,44.242,-7.395e-4,44.242,-9.577e-4,4.177,0.033,28.61,-80.6,0.998,1.182,-4.77e-8,0.013,2.015e-5,615.419,47.7,1.991,0.024,33.002,26.546,2.152,0.044,1.124e6,0,0.421,0.696,0.699,0.302,0.274,0.12,0.197,0.411,3.678e-4,0,0,0,0,0.012,1.906e-4,3,7.069,78.515,0.005,6.532,55.516,978.321,1112.913,0.05,0.164
5.941,979.42,45.948,-1.057,46.132,1.058,44.449,-6.498e-4,44.449,-8.375e-4,4.117,0.042,28.61,-80.6,0.998,1.838,-3.707e-8,0.015,1.748e-5,615.419,47.7,1.991,0.024,32.804,26.546,2.086,0.042,1.088e6,0,0.396,0.696,0.703,0.302,0.274,0.12,0.313,0.634,-4.685e-4,0,0,0,0,0.018,1.838e-4,3,7.069,78.267,0.004,6.976,55.507,978.238,1112.904,0.05,0.164
5.991,981.675,44.251,-1.054,44.436,1.054,44.654,-5.611e-4,44.654,-7.2e-4,4.055,0.032,28.61,-80.6,0.998,1.361,-4.085e-8,0.017,2.368e-5,615.419,47.7,1.991,0.024,32.947,26.546,2.134,0.041,1.047e6,0,0.365,0.696,0.7,0.302,0.274,0.12,0.228,0.459,-1.375e-4,0,0,0,0,0.026,1.77e-4,3,7.069,77.977,0.003,6.474,55.499,978.157,1112.895,0.05,0.165
6.041,983.845,42.559,-1.049,42.748,1.05,44.855,-4.736e-4,44.855,-6.049e-4,4.006,0.03,28.61,-80.6,0.998,1.381,-4.194e-8,0.019,2.22e-5,615.419,47.7,1.991,0.024,32.94,26.546,2.132,0.039,1.008e6,0,0.339,0.696,0.7,0.302,0.274,0.12,0.231,0.459,1.04e-6,0,0,0,0,0.034,1.703e-4,3,7.069,77.653,0.003,6.39,55.491,978.08,1112.886,0.05,0.166
6.091,985.931,40.875,-1.045,41.066,1.045,45.054,-3.872e-4,45.054,-4.924e-4,3.955,0.033,28.61,-80.6,0.998,1.733,-4.138e-8,0.02,2.013e-5,615.419,47.7,1.991,0.024,32.834,26.546,2.096,0.038,9.713e5,0,0.315,0.696,0.702,0.302,0.274,0.12,0.294,0.572,-8.022e-5,0,0,0,0,0.043,1.636e-4,3,7.069,77.3,0.003,6.565,55.484,978.005,1112.878,0.05,0.167
6.141,987.933,39.198,-1.04,39.392,1.041,45.251,-3.018e-4,45.251,-3.822e-4,3.902,0.034,28.61,-80.6,0.998,1.971,-4.106e-8,0.022,1.954e-5,615.419,47.7,1.991,0.024,32.764,26.546,2.073,0.036,9.34e5,0,0.292,0.696,0.704,0.302,0.274,0.12,0.337,0.643,4.246e-7,0,0,0,0,0.056,1.57e-4,3,7.069,76.914,0.003,6.643,55.477,977.933,1112.87,0.05,0.168
6.191,989.851,37.528,-1.036,37.725,1.036,45.444,-2.175e-4,45.444,-2.742e-4,3.844,0.038,28.61,-80.6,0.998,2.571,-4.444e-8,0.024,1.33e-5,615.419,47.7,1.991,0.024,32.593,26.546,2.016,0.035,8.987e5,0,0.273,0.696,0.709,0.302,0.274,0.12,0.448,0.832,-3.705e-4,0,0,0,0,0.072,1.504e-4,3,7.069,76.492,0.003,6.973,55.47,977.865,1112.862,0.05,0.168
6.241,991.686,35.865,-1.032,36.064,1.033,45.635,-1.341e-4,45.635,-1.684e-4,3.781,0.039,28.61,-80.6,0.998,2.895,-4.223e-8,0.027,1.111e-5,615.419,47.7,1.991,0.024,32.503,26.546,1.986,0.034,8.623e5,0,0.253,0.699,0.715,0.305,0.274,0.12,0.51,0.92,1.763e-4,0,0,0,0,0.094,1.437e-4,3,7.069,76.03,0.003,7.093,55.463,977.799,1112.855,0.05,0.169
6.291,993.438,34.208,-1.029,34.409,1.029,45.822,-5.16e-5,45.822,-6.452e-5,3.718,0.038,28.61,-80.6,0.998,3.071,-4.539e-8,0.029,9.749e-6,615.419,47.7,1.991,0.024,32.455,26.546,1.97,0.032,8.254e5,0,0.234,0.702,0.72,0.307,0.274,0.12,0.545,0.952,4.66e-4,0,0,0,0,0.121,1.372e-4,3,7.069,75.525,0.003,7.097,55.457,977.737,1112.848,0.05,0.17
6.341,995.107,32.556,-1.025,32.761,1.025,46.007,3.015e-5,46.007,3.755e-5,3.654,0.042,28.61,-80.6,0.998,3.76,-4.176e-8,0.031,6.415e-6,615.419,47.7,1.991,0.024,32.273,26.546,1.909,0.031,7.911e5,0,0.218,0.704,0.731,0.31,0.274,0.12,0.682,1.148,1.117e-4,0,0,0,0,0.154,1.306e-4,3,7.069,74.979,0.004,7.416,55.451,977.677,1112.842,0.05,0.17
6.391,996.694,30.911,-1.021,31.118,1.022,46.188,1.113e-4,46.188,1.38e-4,3.587,0.041,28.61,-80.6,0.998,4.059,-4.138e-8,0.034,6.025e-6,615.419,47.7,1.991,0.024,32.197,26.546,1.884,0.029,7.552e5,0,0.2,0.707,0.738,0.313,0.274,0.12,0.743,1.204,3.187e-4,0,0,0,0,0.196,1.241e-4,3,7.069,74.39,0.004,7.462,55.446,977.62,1112.836,0.05,0.171
6.441,998.198,29.269,-1.02,29.481,1.02,46.366,1.918e-4,46.366,2.37e-4,3.526,0.034,28.61,-80.6,0.998,3.597,-4.48e-8,0.036,6.827e-6,615.419,47.7,1.991,0.024,32.315,26.546,1.923,0.028,7.158e5,0,0.179,0.711,0.735,0.316,0.274,0.12,0.649,1.002,2.301e-5,0,0,0,0,0.246,1.176e-4,3,7.069,73.759,0.005,7.033,55.44,977.566,1112.83,0.05,0.171
6.491,999.621,27.631,-1.017,27.848,1.018,46.541,2.72e-4,46.541,3.348e-4,3.475,0.031,28.61,-80.6,0.998,3.704,-3.781e-8,0.038,7.071e-6,615.419,47.7,1.991,0.024,32.287,26.546,1.914,0.027,6.791e5,0,0.163,0.714,0.74,0.32,0.274,0.12,0.671,0.985,4.8e-4,0,0,0,0,0.299,1.111e-4,3,7.069,73.096,0.005,6.915,55.435,977.516,1112.824,0.05,0.172
6.541,1000.961,25.996,-1.015,26.221,1.016,46.713,3.518e-4,46.713,4.315e-4,3.428,0.026,28.61,-80.6,0.998,3.365,-4.955e-8,0.039,7.798e-6,615.419,47.7,1.991,0.024,32.376,26.546,1.944,0.025,6.404e5,0,0.145,0.718,0.74,0.324,0.274,0.12,0.602,0.809,-3.367e-4,0,0,0,0,0.361,1.046e-4,3,7.069,72.405,0.005,6.53,55.43,977.468,1112.819,0.05,0.173
6.591,1002.22,24.363,-1.014,24.598,1.015,46.884,4.314e-4,46.884,5.272e-4,3.393,0.018,28.61,-80.6,0.998,2.417,-4.161e-8,0.04,1.563e-5,615.419,47.7,1.991,0.024,32.636,26.546,2.03,0.023,5.992e5,0,0.126,0.722,0.734,0.328,0.274,0.12,0.419,0.421,8.998e-5,0,0,0,0,0.43,9.816e-5,3,7.069,71.693,0.006,5.824,55.426,977.423,1112.814,0.05,0.173
6.641,1003.398,22.733,-1.012,22.981,1.012,47.052,5.109e-4,47.052,6.221e-4,3.364,0.019,28.61,-80.6,0.998,3.11,-4.06e-8,0.04,9.882e-6,615.419,47.7,1.991,0.024,32.444,26.546,1.966,0.022,5.645e5,0,0.113,0.726,0.746,0.332,0.274,0.12,0.552,0.589,-6.661e-5,0,0,0,0,0.497,9.174e-5,3,7.069,70.971,0.006,5.885,55.422,977.381,1112.809,0.05,0.174
6.691,1004.494,21.109,-1.008,21.37,1.008,47.22,5.903e-4,47.22,7.163e-4,3.329,0.025,28.61,-80.6,0.998,4.757,-4.305e-8,0.041,2.517e-6,615.419,47.7,1.991,0.024,32.025,26.546,1.826,0.021,5.337e5,0,0.105,0.73,0.772,0.336,0.274,0.12,0.89,1.047,-4.619e-4,0,0,0,0,0.58,8.534e-5,3,7.069,70.237,0.007,6.3,55.418,977.341,1112.805,0.05,0.174
6.741,1005.509,19.49,-1.005,19.765,1.005,47.385,6.697e-4,47.385,8.098e-4,3.286,0.028,28.61,-80.6,0.998,6.087,-4.728e-8,0.042,-6.057e-7,615.419,47.7,1.991,0.024,31.719,26.546,1.724,0.02,5.014e5,0,0.096,0.735,0.799,0.341,0.274,0.12,1.186,1.353,-3.005e-4,0,0,0,0,0.693,7.897e-5,3,7.069,69.485,0.007,6.475,55.414,977.305,1112.801,0.05,0.175
6.791,1006.443,17.875,-1.002,18.166,1.003,47.548,7.491e-4,47.548,9.026e-4,3.239,0.03,28.61,-80.6,0.998,7.573,-4.107e-8,0.044,-1.66e-6,615.419,47.7,1.991,0.024,31.407,26.546,1.62,0.018,4.694e5,0,0.087,0.74,0.833,0.346,0.274,0.12,1.541,1.661,3.219e-4,0,0,0,0,0.836,7.263e-5,3,7.069,68.711,0.007,6.613,55.411,977.272,1112.797,0.05,0.175
6.841,1007.296,16.266,-0.999,16.575,0.999,47.709,8.285e-4,47.709,9.949e-4,3.187,0.035,28.61,-80.6,0.998,9.721,-3.959e-8,0.045,-3.501e-6,615.419,47.7,1.991,0.024,31.004,26.546,1.486,0.017,4.402e5,0,0.081,0.744,0.88,0.35,0.274,0.12,2.097,2.107,3.181e-4,0,0,0,0,1.01,6.632e-5,3,7.069,67.915,0.008,6.9,55.408,977.241,1112.794,0.05,0.176
6.891,1008.069,14.661,-0.996,14.991,0.997,47.867,9.079e-4,47.867,0.001,3.13,0.036,28.61,-80.6,0.998,11.356,-4.616e-8,0.046,-4.592e-6,615.419,47.7,1.991,0.024,30.732,26.546,1.395,0.016,4.08e5,0,0.073,0.75,0.917,0.356,0.274,0.12,2.555,2.316,-1.368e-4,0,0,0,0,1.25,6.004e-5,3,7.069,67.094,0.008,6.857,55.405,977.214,1112.791,0.05,0.176
6.941,1008.762,13.059,-0.995,13.416,0.996,48.022,9.872e-4,48.022,0.001,3.074,0.034,28.61,-80.6,0.998,12.63,-4.176e-8,0.048,-4.078e-6,615.419,47.7,1.991,0.024,30.537,26.546,1.331,0.015,3.731e5,0,0.063,0.757,0.947,0.363,0.274,0.12,2.931,2.326,3.676e-4,0,0,0,0,1.575,5.38e-5,3,7.069,66.25,0.008,6.547,55.403,977.189,1112.788,0.05,0.177
6.991,1009.375,11.46,-0.993,11.851,0.993,48.174,0.001,48.174,0.001,3.019,0.035,28.61,-80.6,0.998,14.996,-4.386e-8,0.049,-4.474e-6,615.419,47.7,1.991,0.024,30.212,26.546,1.222,0.013,3.421e5,0,0.055,0.764,0.985,0.37,0.274,0.12,3.675,2.536,-2.196e-4,0,0,0,0,1.956,4.761e-5,3,7.069,65.385,0.009,6.465,55.4,977.167,1112.786,0.05,0.177
7.041,1009.908,9.866,-0.99,10.301,0.99,48.324,0.001,48.324,0.001,2.962,0.036,28.61,-80.6,0.998,18.081,-4.236e-8,0.05,-4.794e-6,615.419,47.7,1.991,0.024,29.849,26.546,1.101,0.012,3.132e5,0,0.047,0.772,1.002,0.378,0.274,0.12,4.73,2.778,8.759e-5,0,0,0,0,2.43,4.149e-5,3,7.069,64.501,0.009,6.426,55.399,977.148,1112.783,0.05,0.178
7.091,1010.362,8.275,-0.988,8.77,0.989,48.471,0.001,48.471,0.001,2.904,0.035,28.61,-80.6,0.998,21.213,-4.026e-8,0.05,-4.338e-6,615.419,47.7,1.991,0.024,29.539,26.546,0.998,0.011,2.823e5,0,0.038,0.781,0.996,0.387,0.274,0.12,5.739,2.038,1.188e-4,0,0,0,0,3.095,3.546e-5,3,7.069,63.601,0.009,6.163,55.397,977.132,1112.782,0.05,0.179
7.141,1010.736,6.689,-0.983,7.269,0.984,48.614,0.001,48.614,0.002,2.844,0.04,28.61,-80.6,0.998,27.607,-4.247e-8,0.051,-5.622e-6,615.419,47.7,1.991,0.024,29.048,26.546,0.834,0.01,2.676e5,0,0.031,0.785,0.915,0.391,0.274,0.12,7.561,-1.025,2.429e-5,0,0,0,0,3.462,2.957e-5,3,7.069,62.692,0.009,6.677,55.396,977.118,1112.78,0.05,0.179
7.191,1011.031,5.11,-0.98,5.816,0.981,48.755,0.001,48.755,0.002,2.777,0.042,28.61,-80.6,0.998,33.388,-4.31e-8,0.05,-5.717e-6,615.419,47.7,1.991,0.024,28.731,26.546,0.729,0.01,2.471e5,0,0.023,0.793,0.804,0.399,0.274,0.12,9.436,-4.08,3.737e-5,0,0,0,0,3.967,2.391e-5,3,7.069,61.787,0.01,6.674,55.395,977.108,1112.779,0.05,0.18
7.241,1011.247,3.536,-0.976,4.453,0.977,48.892,0.001,48.892,0.002,2.708,0.045,28.61,-80.6,0.998,40.371,-4.238e-8,0.049,-5.689e-6,615.419,47.7,1.991,0.024,28.468,26.546,0.641,0.009,2.319e5,0,0.016,0.799,0.639,0.405,0.274,0.12,11.884,-7.543,3.838e-4,0,0,0,0,4.304,1.867e-5,3,7.069,60.897,0.01,6.735,55.394,977.1,1112.778,0.05,0.182
7.291,1011.385,1.963,-0.992,3.291,0.992,49.026,0.002,49.026,0.002,2.641,0.015,28.61,-80.6,0.998,47.965,-4.326e-8,0.047,-5.57e-6,615.419,47.7,1.991,0.024,33.711,26.546,2.389,0.008,2.165e5,0,0.01,0.805,0.454,0.411,0.274,0.12,4.278,-3.219,4.528e-4,0,0,0,0,4.617,1.427e-5,3,7.069,60.031,0.01,6.573,55.393,977.095,1112.778,0.05,0.183
7.341,1011.443,0.368,-0.991,2.644,0.991,49.157,0.002,49.157,0.002,2.618,0.015,28.61,-80.6,0.998,56.913,-4.218e-8,0.047,-5.564e-6,615.419,47.7,1.991,0.024,33.967,26.546,2.474,0.008,2.136e5,0,0.006,0.806,0.258,0.412,0.274,0.12,4.541,-4.676,-4.08e-4,0,0,0,0,4.659,1.196e-5,3,7.069,59.183,0.01,6.662,55.393,977.093,1112.777,0.05,0.184
# Event APOGEE occurred at t=7.391 seconds
7.391,1011.421,-1.225,-0.99,2.87,0.99,49.287,0.002,49.287,0.002,2.595,0.014,28.61,-80.6,0.998,66.081,-4.176e-8,0.046,-5.247e-6,615.419,47.7,1.991,0.024,34.296,26.546,2.584,0.008,2.094e5,0,0.002,0.808,0.112,0.414,0.274,0.12,4.748,-5.829,1.403e-4,0,0,0,0,4.679,1.274e-5,3,7.069,58.348,0.01,6.429,55.393,977.094,1112.777,0.05,0.184
7.441,1011.32,-2.817,-0.989,3.814,0.989,49.417,0.002,49.417,0.002,2.571,0.016,28.61,-80.6,0.998,74.859,-4.209e-8,0.045,-5.248e-6,615.419,47.7,1.991,0.024,34.619,26.546,2.691,0.008,2.175e5,0,7.105e-4,0.805,0.032,0.411,0.274,0.12,4.938,-6.112,-4.386e-4,0,0,0,0,4.163,1.618e-5,3,7.069,57.528,0.011,6.457,55.393,977.097,1112.778,0.05,0.185
