Time (s),Altitude (m),Vertical velocity (m/s),Vertical acceleration (G),Total velocity (ft/s),Total acceleration (G),Position East of launch (ft),Position North of launch (ft),Lateral distance (m),Lateral direction (°),Lateral velocity (ft/s),Lateral acceleration (G),Latitude (°),Longitude (°),Gravitational acceleration (G),Angle of attack (°),Roll rate (r/s),Pitch rate (r/s),Yaw rate (r/s),Mass (g),Motor mass (g),Longitudinal moment of inertia (lb·ft²),Rotational moment of inertia (lb·ft²),CP location (in),CG location (in),Stability margin calibers,Mach number,Reynolds number ,Thrust (N),Drag force (N),Drag coefficient,Axial drag coefficient,Friction drag coefficient,Pressure drag coefficient,Base drag coefficient,Normal force coefficient,Pitch moment coefficient,Yaw moment coefficient,Side force coefficient,Roll moment coefficient,Roll forcing coefficient,Roll damping coefficient,Pitch damping coefficient,Coriolis acceleration (G),Reference length (in),Reference area (in²),Vertical orientation (zenith) (°),Lateral orientation (azimuth) (°),Wind velocity (ft/s),Air temperature (°F),Air pressure (mbar),Speed of sound (ft/s),Simulation time step (s),Computation time (s),Air_density(kg/m^3),cross sectional area(m)
0.01,-0.00026017728,-0.05212080000000001,-0.531,0.171,0.531,0.0,0.0,0.0,0.0,0.0,0.0,28.61,-80.6,0.999,91.718,0.0,0.0,0.0,732.765,249.879,2.402,0.022,,30.711,,0.005,133700.0,3.363,-4.784e-07,0.856,-5.695e-05,0.462,0.274,0.12,,,,,,,,,6.794e-07,3.0,7.069,90.0,0.0,5.693,60.0,1013.25,1117.866,0.01,0.0009858,1.22264,0.19558
0.02,0.00019876008,0.039624000000000006,0.406,0.13,0.406,0.0,0.0,0.0,0.0,0.0,0.0,28.61,-80.6,0.999,88.693,0.0,0.0,0.0,732.644,249.758,2.402,0.022,,30.709,,0.005,134200.0,10.088,2.132e-07,0.855,2.517e-05,0.461,0.274,0.12,,,,,,,,,5.191e-07,3.0,7.069,90.0,0.0,5.718,60.0,1013.25,1117.866,0.01,0.001,1.22264,0.19558
0.03,0.0012192000000000001,0.17129760000000002,1.342,0.562,1.342,0.0,0.0,0.0,0.0,0.0,0.0,28.61,-80.6,0.999,84.409,0.0,0.0,0.0,732.523,249.638,2.402,0.022,,30.707,,0.005,135400.0,16.813,1.622e-05,0.854,0.002,0.46,0.274,0.12,,,,,,,,,2.237e-06,3.0,7.069,90.0,0.0,5.743,60.0,1013.25,1117.866,0.01,0.002,1.22264,0.19558
0.04,0.0039624,0.394716,2.279,1.295,2.279,0.0,0.0,0.0,0.0,0.0,0.0,28.61,-80.6,0.999,77.343,0.0,0.0,0.0,732.403,249.517,2.402,0.022,,30.705,,0.005,138700.0,23.538,0.0001817,0.851,0.02,0.457,0.274,0.12,,,,,,,,,5.154e-06,3.0,7.069,90.0,0.0,5.768,60.0,1013.25,1117.866,0.01,0.002,1.22264,0.19558
0.05,0.009753600000000001,0.710184,3.216,2.33,3.216,0.0,0.0,0.0,0.0,0.0,0.0,28.61,-80.6,0.999,68.091,0.0,0.0,0.0,732.282,249.396,2.401,0.022,,30.703,,0.006,146500.0,30.263,0.0009297,0.845,0.092,0.451,0.274,0.12,,,,,,,,,9.271e-06,3.0,7.069,90.0,0.0,5.792,60.0,1013.249,1117.866,0.01,0.002,1.22264,0.19558
0.06,0.0188976,1.1173968,4.153,3.666,4.153,0.0,0.0,0.0,0.0,0.0,0.0,28.61,-80.6,0.999,58.003,0.0,0.0,0.0,732.161,249.275,2.401,0.022,,30.701,,0.006,162400.0,36.989,0.003,0.834,0.245,0.44,0.274,0.12,,,,,,,,,1.459e-05,3.0,7.069,90.0,0.0,5.867,60.0,1013.248,1117.866,0.01,0.003,1.22264,0.19558
0.07,0.0323088,1.6163544,5.09,5.303,5.09,0.0,0.0,0.0,0.0,0.0,0.0,28.61,-80.6,0.999,48.248,0.0,0.0,0.0,732.04,249.155,2.401,0.022,,30.699,,0.007,186900.0,43.714,0.007,0.82,0.455,0.426,0.274,0.12,,,,,,,,,2.11e-05,3.0,7.069,90.0,0.0,5.941,60.0,1013.246,1117.866,0.01,0.003,1.22264,0.19558
0.08,0.05151120000000001,2.2058376,6.011,7.237,6.011,0.0,0.0,0.0,0.0,0.0,0.0,28.61,-80.6,0.999,39.736,0.0,0.0,0.0,731.81,248.924,2.4,0.022,,30.696,,0.008,220900.0,50.319,0.015,0.803,0.659,0.409,0.274,0.12,,,,,,,,,2.88e-05,3.0,7.069,90.0,0.0,6.016,59.999,1013.244,1117.865,0.01,0.003,1.22264,0.19558
0.09,0.0768096,2.8757880000000005,6.833,9.435,6.833,0.0,0.0,0.0,0.0,0.0,0.0,28.61,-80.6,0.999,32.842,0.0,0.0,0.0,731.47,248.585,2.4,0.022,,30.69,,0.01,263600.0,56.204,0.026,0.787,0.811,0.393,0.274,0.12,,,,,,,,,3.755e-05,3.0,7.069,90.0,0.0,6.09,59.999,1013.241,1117.865,0.01,0.003,1.22264,0.19558
0.1,0.1094232,3.6246816,7.639,11.892,7.639,0.0,0.0,0.0,0.0,0.0,0.0,28.61,-80.6,0.999,27.401,0.0,0.0,0.0,731.131,248.245,2.399,0.022,,30.685,,0.012,314400.0,61.97,0.042,0.771,0.903,0.377,0.274,0.12,,,,,,,,,4.732e-05,3.0,7.069,90.0,0.0,6.165,59.999,1013.237,1117.865,0.01,0.004,1.22264,0.19558
0.11,0.1499616,4.4528232,8.444,14.609,8.444,0.0,0.0,0.0,0.0,0.0,0.0,28.61,-80.6,0.999,22.961,0.0,0.0,0.0,730.791,247.906,2.398,0.022,,30.68,,0.014,372400.0,67.735,0.062,0.757,0.95,0.363,0.274,0.12,,,,,,,,,5.814e-05,3.0,7.069,90.0,0.0,6.189,59.998,1013.232,1117.864,0.01,0.004,1.22264,0.19558
0.12,0.19903440000000003,5.359908000000001,9.25,17.585,9.25,0.0,0.0,0.0,0.0,0.0,0.0,28.61,-80.6,0.999,19.462,0.0,0.0,0.0,730.452,247.566,2.398,0.022,,30.674,,0.017,437700.0,73.501,0.087,0.745,0.962,0.351,0.274,0.12,,,,,,,,,6.998e-05,3.0,7.069,90.0,0.0,6.214,59.998,1013.227,1117.863,0.01,0.004,1.22264,0.19558
0.13,0.257556,6.345936,10.056,20.82,10.056,0.0,0.0,0.0,0.0,0.0,0.0,28.61,-80.6,0.999,16.681,0.0,0.0,0.0,730.112,247.226,2.397,0.022,,30.669,,0.019,510100.0,79.266,0.117,0.734,0.953,0.34,0.274,0.12,,,,,,,,,8.285e-05,3.0,7.069,90.0,0.0,6.239,59.997,1013.22,1117.863,0.01,0.004,1.22264,0.19558
0.14,0.32613600000000004,7.411212000000001,10.862,24.315,10.862,0.0,0.0,0.0,0.0,0.0,0.0,28.61,-80.6,0.999,14.445,0.0,0.0,0.0,729.772,246.887,2.396,0.022,,30.664,,0.022,589300.0,85.032,0.151,0.723,0.927,0.329,0.274,0.12,,,,,,,,,9.676e-05,3.0,7.069,90.0,0.0,6.264,59.996,1013.212,1117.862,0.01,0.004,1.22264,0.19558
0.15,0.40599360000000007,8.5545168,11.659,28.066,11.659,0.0,0.0,0.0,0.0,0.0,0.0,28.61,-80.6,0.999,12.629,0.0,0.0,0.0,729.358,246.472,2.395,0.022,,30.657,,0.026,675000.0,90.724,0.191,0.714,0.893,0.32,0.274,0.12,,,,,,,,,0.0001117,3.0,7.069,90.0,0.0,6.288,59.995,1013.202,1117.861,0.01,0.005,1.22264,0.19558
0.16,0.4977384,9.766401600000002,12.362,32.042,12.362,0.0,0.0,0.0,0.0,0.0,0.0,28.61,-80.6,0.999,11.163,0.0,0.0,0.0,728.831,245.945,2.394,0.022,,30.649,,0.029,766500.0,95.732,0.238,0.706,0.86,0.312,0.274,0.12,,,,,,,,,0.0001275,3.0,7.069,90.0,0.0,6.323,59.994,1013.192,1117.86,0.01,0.005,1.22264,0.19558
0.17,0.6016752000000001,11.045342400000001,13.042,36.238,13.042,0.0,0.0,0.0,0.0,0.0,0.0,28.61,-80.6,0.999,9.951,0.0,0.0,0.0,728.304,245.418,2.393,0.022,,30.64,,0.033,863500.0,100.573,0.291,0.699,0.83,0.305,0.274,0.12,,,,,,,,,0.0001442,3.0,7.069,90.0,0.0,6.358,59.993,1013.18,1117.858,0.01,0.005,1.22264,0.19558
0.179,0.707136,12.2611896,13.69,40.227,13.69,0.0,0.0,0.0,0.0,0.0,0.0,28.61,-80.6,0.999,9.025,0.0,0.0,0.0,727.827,244.941,2.392,0.022,,30.633,,0.036,955900.0,105.186,0.348,0.696,0.81,0.302,0.274,0.12,,,,,,,,,0.0001601,3.0,7.069,90.0,0.0,6.389,59.992,1013.167,1117.857,0.009,0.006,1.22264,0.19558
0.187,0.8119872000000001,13.4032752,14.274,43.974,14.274,0.0,0.0,0.0,0.0,0.0,0.0,28.61,-80.6,0.999,8.304,0.0,0.0,0.0,727.397,244.512,2.391,0.022,,30.626,,0.04,1043000.0,109.352,0.407,0.696,0.797,0.302,0.274,0.12,,,,,,,,,0.000175,3.0,7.069,90.0,0.0,6.418,59.99,1013.155,1117.855,0.008,0.006,1.22264,0.19558
0.195,0.915924,14.486839200000002,14.804,47.529,14.804,0.0,0.0,0.0,0.0,0.0,0.0,28.61,-80.6,0.999,7.721,0.0,0.0,0.0,727.004,244.119,2.39,0.022,,30.619,,0.043,1126000.0,113.132,0.468,0.696,0.786,0.302,0.274,0.12,,,,,,,,,0.0001891,3.0,7.069,90.0,0.0,6.444,59.989,1013.143,1117.854,0.007,0.006,1.22264,0.19558
0.202,1.0195560000000001,15.522244800000001,15.291,50.926,15.291,0.0,0.0,0.0,0.0,0.0,0.0,28.61,-80.6,0.999,7.238,0.0,0.0,0.0,726.641,243.755,2.39,0.022,,30.614,,0.046,1205000.0,116.61,0.53,0.696,0.777,0.302,0.274,0.12,,,,,,,,,0.0002027,3.0,7.069,90.0,0.0,6.468,59.988,1013.131,1117.853,0.007,0.006,1.22264,0.19558
0.212,1.1884152000000001,17.1321984,15.876,56.208,15.876,-0.0002476,0.0,7.546848000000001e-05,-180.0,0.048,0.151,28.61,-80.6,0.999,6.551,0.0,0.0004042,2.168e-07,726.095,243.209,2.388,0.022,31.619,30.605,0.338,0.051,1328000.0,120.787,0.634,0.696,0.765,0.301,0.274,0.12,1.295,0.437,-0.0001682,0.0,0.0,0.0,0.0,9.363e-06,0.0002237,3.0,7.069,89.999,-0.034,6.505,59.986,1013.111,1117.851,0.01,0.006,1.22264,0.19558
0.227,1.4743176,19.679107199999997,16.748,64.564,16.749,-0.002,0.0,0.0006096000000000001,-180.0,0.128,0.167,28.61,-80.6,0.999,5.684,0.0,0.001,4.773e-07,725.201,242.315,2.387,0.022,31.81,30.59,0.407,0.058,1523000.0,127.027,0.819,0.696,0.751,0.301,0.274,0.12,1.095,0.445,-0.0002314,0.0,0.0,0.0,0.0,6.253e-05,0.000257,3.0,7.069,89.995,-0.018,6.561,59.983,1013.077,1117.847,0.016,0.007,1.22264,0.19558
0.251,1.9805904,23.7768384,17.972,78.009,17.973,-0.006,-1.696e-08,0.0018288000000000002,-180.0,0.261,0.187,28.61,-80.6,0.999,4.653,0.0,0.003,7.398e-07,723.578,240.692,2.383,0.022,32.053,30.564,0.496,0.07,1837000.0,135.782,1.167,0.697,0.735,0.301,0.274,0.121,0.868,0.43,-0.0002098,0.0,0.0,0.0,0.0,0.0002412,0.0003106,3.0,7.069,89.978,-0.009,6.642,59.977,1013.018,1117.84,0.023,0.007,1.22264,0.19558
0.286,2.929128,30.53334,19.758,100.176,19.759,-0.019,-1.102e-07,0.0057912,-180.0,0.481,0.2,28.61,-80.6,0.999,3.448,0.0,0.006,8.389e-07,721.143,238.258,2.378,0.022,32.359,30.525,0.611,0.09,2357000.0,148.666,1.879,0.697,0.719,0.301,0.275,0.121,0.619,0.377,-0.0003445,0.0,0.0,0.0,0.0,0.0007406,0.0003989,3.0,7.069,89.922,-0.003,6.659,59.965,1012.907,1117.828,0.035,0.007,1.22264,0.19558
0.336,4.7265336,41.3924496,22.164,135.804,22.165,-0.051,-5.225e-07,0.0155448,-179.999,0.789,0.174,28.61,-80.6,0.999,2.358,7.216e-09,0.014,1.321e-07,717.133,234.247,2.369,0.022,32.661,30.459,0.734,0.122,3192000.0,166.289,3.4,0.699,0.71,0.301,0.276,0.122,0.409,0.298,-0.000287,0.0,0.0,0.0,0.0,0.002,0.0005408,3.0,7.069,89.745,-0.002,6.997,59.944,1012.696,1117.804,0.05,0.007,1.22264,0.19558
0.386,7.098487200000001,53.468930400000005,24.544,175.425,24.544,-0.095,-1.183e-06,0.028956000000000003,-179.999,0.949,0.002,28.61,-80.6,0.999,1.359,-1.705e-08,0.023,4.917e-06,712.783,229.897,2.36,0.021,32.961,30.387,0.858,0.157,4118000.0,184.15,5.617,0.701,0.704,0.301,0.277,0.123,0.228,0.193,-0.000135,0.0,0.0,0.0,0.0,0.003,0.0006981,3.0,7.069,89.415,-0.003,6.911,59.916,1012.419,1117.774,0.05,0.007,1.22264,0.19558
0.436,10.100157600000001,66.577464,26.596,218.431,26.598,-0.138,-3.713e-06,0.04206240000000001,-179.998,0.652,0.371,28.61,-80.6,0.999,0.505,-1.025e-08,0.031,-2.891e-05,707.995,225.11,2.349,0.021,33.238,30.307,0.977,0.196,5125000.0,200.3,8.697,0.703,0.704,0.3,0.278,0.125,0.082,0.077,-0.0002071,0.0,0.0,0.0,0.0,0.004,0.0008693,3.0,7.069,88.922,0.003,6.668,59.881,1012.068,1117.734,0.05,0.008,1.22264,0.19558
0.486,13.778484,80.52602639999999,28.246,264.193,28.259,-0.147,-2.232e-06,0.0448056,-179.999,0.393,0.887,28.61,-80.6,0.999,0.102,2.602e-08,-0.033,-0.0001012,702.826,219.94,2.337,0.021,33.382,30.219,1.054,0.236,6197000.0,214.428,12.775,0.707,0.707,0.3,0.28,0.127,0.016,0.02,-0.0004884,0.0,0.0,0.0,0.0,-0.003,0.001,3.0,7.069,88.333,0.012,6.76,59.838,1011.637,1117.687,0.05,0.01,1.22264,0.19558
0.536,18.168823200000002,95.0406024,29.325,311.822,29.361,-0.082,3.142e-05,0.0249936,179.978,2.345,1.449,28.61,-80.6,0.999,0.491,-1.643e-07,-0.026,4.375e-05,697.483,214.597,2.325,0.021,33.267,30.127,1.047,0.279,7312000.0,225.557,17.916,0.711,0.712,0.299,0.282,0.13,0.08,0.085,-0.0004303,0.0,0.0,0.0,0.0,-0.001,0.001,3.0,7.069,87.795,0.03,6.881,59.786,1011.123,1117.629,0.05,0.01,1.22264,0.19558
0.576,22.251924,107.04088320000001,29.994,351.213,30.048,0.055,0.0001219,0.016764,0.126,4.531,1.792,28.61,-80.6,0.999,0.601,1.475e-07,-0.011,-6.398e-05,692.946,210.06,2.315,0.021,33.244,30.048,1.065,0.314,8233000.0,233.803,22.863,0.716,0.717,0.299,0.284,0.133,0.099,0.105,0.0004601,0.0,0.0,0.0,0.0,-0.0001883,0.001,3.0,7.069,87.529,0.04,6.877,59.738,1010.645,1117.576,0.04,0.011,1.22264,0.19558
0.602,25.167031200000004,114.92423040000001,30.386,377.098,30.443,0.195,0.0002323,0.059436,0.068,6.109,1.862,28.61,-80.6,0.999,0.544,0.0,0.0008356,1.808e-05,689.96,207.075,2.308,0.021,33.272,29.995,1.092,0.338,8838000.0,239.163,26.46,0.719,0.72,0.298,0.286,0.135,0.089,0.097,5.901e-05,0.0,0.0,0.0,0.0,9.002e-07,0.002,3.0,7.069,87.483,0.036,6.881,59.703,1010.304,1117.538,0.026,0.011,1.22264,0.19558
0.627,28.1113992,122.39457360000002,30.498,401.628,30.546,0.365,0.0003697,0.111252,0.058,7.556,1.717,28.61,-80.6,0.999,0.361,5.319e-08,0.011,-8.263e-05,687.053,204.167,2.301,0.021,33.341,29.943,1.133,0.36,9411000.0,242.641,30.128,0.722,0.722,0.298,0.288,0.137,0.059,0.066,0.0001593,0.0,0.0,0.0,0.0,0.0001331,0.002,3.0,7.069,87.538,0.029,7.191,59.669,1009.959,1117.5,0.025,0.011,1.22264,0.19558
0.659,32.178955200000004,132.0323496,30.459,433.274,30.489,0.633,0.0005756,0.1929384,0.052,9.155,1.374,28.61,-80.6,0.999,0.1,3.412e-08,0.018,-0.0002466,683.306,200.42,2.292,0.021,33.44,29.876,1.188,0.388,10150000.0,246.244,35.252,0.726,0.726,0.297,0.29,0.14,0.016,0.018,0.0004145,0.0,0.0,0.0,0.0,0.0003109,0.002,3.0,7.069,87.713,0.009,7.443,59.621,1009.483,1117.447,0.032,0.012,1.22264,0.19558
0.707,38.8555992,146.34697680000002,29.935,480.263,29.948,1.115,0.0008303,0.339852,0.043,10.835,0.874,28.61,-80.6,0.999,0.144,5.968e-08,-0.014,-9.687e-05,677.591,194.705,2.278,0.021,33.447,29.771,1.225,0.43,11240000.0,249.337,43.706,0.733,0.734,0.296,0.293,0.144,0.023,0.029,0.0002598,0.0,0.0,0.0,0.0,-0.0001572,0.002,3.0,7.069,88.018,-0.041,7.275,59.542,1008.701,1117.36,0.048,0.012,1.22264,0.19558
0.749,45.235368,158.467044,29.036,520.038,29.044,1.589,0.0008798,0.4843272,0.032,11.749,0.67,28.61,-80.6,0.999,0.188,-1.021e-07,-0.000649,4.015e-06,672.587,189.702,2.266,0.021,33.452,29.678,1.258,0.466,12170000.0,249.813,51.67,0.74,0.74,0.295,0.297,0.148,0.031,0.039,-0.0003732,0.0,0.0,0.0,0.0,-2.856e-07,0.002,3.0,7.069,88.128,-0.04,7.159,59.467,1007.955,1117.277,0.042,0.012,1.22264,0.19558
0.778,49.97165520000001,166.6497048,28.274,546.892,28.285,1.94,0.0008201,0.5913120000000001,0.024,12.399,0.803,28.61,-80.6,0.999,0.094,3.541e-08,0.009,-1.458e-05,669.112,186.226,2.257,0.021,33.498,29.613,1.295,0.49,12790000.0,249.621,57.475,0.745,0.745,0.294,0.299,0.151,0.015,0.02,-0.0004823,0.0,0.0,0.0,0.0,4.551e-05,0.002,3.0,7.069,88.073,-0.027,6.875,59.411,1007.4,1117.215,0.029,0.012,1.22264,0.19558
0.822,57.5139312,178.45735200000001,26.959,585.654,26.981,2.511,0.000674,0.7653528,0.015,13.829,1.097,28.61,-80.6,0.999,0.043,2.375e-07,-0.006,-0.0002539,663.905,181.02,2.244,0.021,33.539,29.514,1.342,0.524,13690000.0,248.664,66.505,0.752,0.752,0.293,0.303,0.156,0.007,0.009,-0.0002435,0.0,0.0,0.0,0.0,-1.961e-05,0.002,3.0,7.069,87.92,0.012,6.682,59.322,1006.517,1117.117,0.044,0.013,1.22264,0.19558
0.872,66.755772,191.0949696,25.069,627.149,25.091,3.252,0.0006463,0.9912096,0.011,15.747,1.049,28.61,-80.6,0.999,0.042,-1.838e-07,0.001,-0.0001915,658.054,175.169,2.229,0.021,33.572,29.401,1.39,0.562,14650000.0,245.403,77.044,0.761,0.761,0.292,0.307,0.161,0.007,0.01,0.0004826,0.0,0.0,0.0,0.0,1.012e-06,0.002,3.0,7.069,87.88,-0.006,6.506,59.213,1005.435,1116.997,0.05,0.013,1.22264,0.19558
0.914,75.0899184,200.97810959999998,23.126,659.599,23.139,3.952,0.0005808,1.2045696000000001,0.008,17.103,0.773,28.61,-80.6,0.999,0.024,-4.587e-08,-0.007,-0.0004057,653.165,170.279,2.217,0.021,33.608,29.305,1.435,0.591,15400000.0,240.545,85.94,0.768,0.768,0.291,0.311,0.165,0.004,0.006,0.0002032,0.0,0.0,0.0,0.0,-1.917e-05,0.003,3.0,7.069,87.991,-0.042,6.309,59.115,1004.46,1116.888,0.043,0.013,1.22264,0.19558
0.964,85.40374080000001,211.4479896,20.636,693.961,20.651,4.83,0.0003177,1.4721840000000002,0.004,18.029,0.779,28.61,-80.6,0.999,0.004,-5.63e-07,-0.004,-0.000377,647.546,164.66,2.202,0.021,33.651,29.192,1.486,0.622,16190000.0,233.464,95.99,0.775,0.775,0.29,0.315,0.17,0.0005998,0.0007028,0.0004719,0.0,0.0,0.0,0.0,-7.21e-06,0.003,3.0,7.069,88.031,0.03,6.66,58.993,1003.252,1116.754,0.05,0.013,1.22264,0.19558
1.004,94.0271424,218.8177488,18.245,718.151,18.26,5.566,0.0002325,1.6965168,0.002,18.783,0.742,28.61,-80.6,0.998,0.013,-1.965e-07,-0.006,-0.0003358,643.306,160.42,2.19,0.021,33.677,29.106,1.523,0.643,16740000.0,224.983,103.494,0.781,0.781,0.289,0.318,0.174,0.002,0.004,-0.0004912,0.0,0.0,0.0,0.0,-1.166e-05,0.003,3.0,7.069,87.93,0.005,7.054,58.891,1002.243,1116.641,0.04,0.013,1.22264,0.19558
1.054,105.1672776,226.6687872,15.401,743.933,15.407,6.538,0.0002103,1.9927824000000003,0.002,20.026,0.424,28.61,-80.6,0.998,0.042,2.905e-07,-0.005,-0.0003266,638.113,155.227,2.176,0.021,33.699,28.999,1.567,0.666,17330000.0,214.472,111.817,0.787,0.787,0.288,0.321,0.178,0.007,0.011,0.000329,0.0,0.0,0.0,0.0,-7.012e-06,0.003,3.0,7.069,87.882,-0.026,6.974,58.76,1000.939,1116.496,0.05,0.014,1.22264,0.19558
1.104,116.6579328,232.88244,12.178,764.335,12.185,7.561,4.964e-05,2.3045928,0.0003761,20.841,0.427,28.61,-80.6,0.998,0.011,-4.555e-07,0.004,0.001,633.347,150.461,2.163,0.021,33.736,28.9,1.612,0.685,17790000.0,200.579,118.697,0.793,0.793,0.287,0.324,0.181,0.002,0.003,0.0001965,0.0,0.0,0.0,0.0,5.086e-06,0.003,3.0,7.069,87.929,-0.017,6.914,58.625,999.593,1116.347,0.05,0.014,1.22264,0.19558
1.154,128.416812,237.41359680000002,8.864,779.211,8.871,8.618,-0.0001541,2.6267664,-0.001,21.419,0.36,28.61,-80.6,0.998,0.004,-5.693e-07,0.002,0.003,628.976,146.09,2.151,0.021,33.759,28.807,1.651,0.698,18120000.0,184.693,123.821,0.796,0.796,0.287,0.326,0.183,0.000733,0.001,0.0004679,0.0,0.0,0.0,0.0,1.373e-06,0.003,3.0,7.069,87.957,0.049,6.389,58.486,998.217,1116.194,0.05,0.014,1.22264,0.19558
1.204,140.35857120000003,240.21836640000004,5.483,788.419,5.489,9.698,-7.702e-06,2.9559504000000003,-4.55e-05,21.786,0.246,28.61,-80.6,0.998,0.005,-2.189e-07,0.001,-0.0008421,624.92,142.034,2.14,0.021,33.772,28.719,1.684,0.707,18310000.0,166.759,127.006,0.799,0.799,0.287,0.328,0.185,0.0008396,0.001,0.0001452,0.0,0.0,0.0,0.0,6.232e-07,0.003,3.0,7.069,87.98,-0.054,6.049,58.345,996.819,1116.038,0.05,0.014,1.22264,0.19558
1.254,152.39481840000002,241.2184152,1.962,791.703,1.965,10.791,-0.0003022,3.2890968000000003,-0.002,21.939,0.122,28.61,-80.6,0.998,0.008,-4.629e-07,0.0008434,7.439e-05,621.454,138.568,2.13,0.021,33.776,28.644,1.711,0.71,18370000.0,146.115,128.06,0.8,0.8,0.286,0.328,0.185,0.001,0.002,-0.0002984,0.0,0.0,0.0,0.0,2.082e-07,0.003,3.0,7.069,87.995,-0.019,5.783,58.203,995.409,1115.881,0.05,0.015,1.22264,0.19558
1.304,164.4353328,240.40886640000002,-1.563,789.046,1.563,11.886,-0.0006602,3.6228528,-0.003,21.872,0.034,28.61,-80.6,0.998,0.006,-2.463e-07,-0.000613,-0.0007854,618.585,135.7,2.121,0.021,33.773,28.581,1.731,0.707,18290000.0,123.519,126.946,0.799,0.799,0.286,0.328,0.185,0.0009172,0.001,-1.837e-06,0.0,0.0,0.0,0.0,-1.107e-07,0.003,3.0,7.069,88.001,0.02,5.701,58.061,994.0,1115.724,0.05,0.015,1.22264,0.19558
1.354,176.3898936,237.81379920000003,-5.041,780.528,5.043,12.972,-0.000628,3.9538656,-0.003,21.602,0.106,28.61,-80.6,0.998,0.01,-4.417e-07,-0.001,0.0003491,616.086,133.2,2.114,0.021,33.759,28.525,1.745,0.7,18080000.0,99.301,123.734,0.797,0.797,0.287,0.326,0.184,0.002,0.002,0.000357,0.0,0.0,0.0,0.0,-4.821e-07,0.003,3.0,7.069,87.985,0.047,5.845,57.92,992.6,1115.569,0.05,0.015,1.22264,0.19558
1.404,188.16919439999998,233.4255936,-8.534,766.125,8.539,14.042,-0.0004166,4.2800016,-0.002,21.177,0.302,28.61,-80.6,0.998,0.009,-3.107e-07,-0.001,-0.0003814,614.423,131.537,2.109,0.021,33.74,28.488,1.751,0.687,17730000.0,73.078,118.517,0.793,0.793,0.287,0.324,0.181,0.001,0.003,0.0001079,0.0,0.0,0.0,0.0,-5.669e-07,0.003,3.0,7.069,87.985,-0.017,5.716,57.781,991.221,1115.415,0.05,0.015,1.22264,0.19558
1.454,199.68301440000002,227.22961920000003,-12.067,745.787,12.074,15.085,-0.0004054,4.597908,-0.002,20.536,0.418,28.61,-80.6,0.998,0.008,-3.419e-07,-0.001,8.247e-05,613.417,130.531,2.106,0.021,33.714,28.466,1.749,0.669,17240000.0,44.822,111.453,0.788,0.788,0.288,0.322,0.178,0.001,0.003,0.0001743,0.0,0.0,0.0,0.0,-5.759e-07,0.003,3.0,7.069,88.007,0.036,5.426,57.646,989.873,1115.265,0.05,0.015,1.22264,0.19558
1.5,209.8810128,219.88272,-15.779,721.669,15.787,16.002,-0.00019,4.8774096,-0.0006803,19.698,0.491,28.61,-80.6,0.998,0.009,-1.329e-07,-0.001,-0.0005915,612.886,130.0,2.105,0.021,33.683,28.454,1.743,0.647,16670000.0,14.592,103.478,0.782,0.782,0.289,0.319,0.174,0.001,0.003,-0.0004846,0.0,0.0,0.0,0.0,-4.954e-07,0.003,3.0,7.069,88.006,0.008,5.544,57.525,988.679,1115.133,0.046,0.016,1.22264,0.19558
1.55,220.65813119999999,211.3233264,-16.739,693.573,16.748,16.964,1.446e-05,5.1706272,4.882e-05,18.8,0.566,28.61,-80.6,0.998,0.006,-3.78e-07,-0.002,0.001,612.886,130.0,2.105,0.021,33.651,28.454,1.732,0.622,16010000.0,0.0,94.664,0.775,0.775,0.29,0.315,0.17,0.001,0.002,0.000491,0.0,0.0,0.0,0.0,-1.683e-06,0.003,3.0,7.069,88.001,0.025,5.274,57.398,987.418,1114.992,0.05,0.016,1.22264,0.19558
1.6,231.0243792,203.4363216,-15.462,667.681,15.47,17.881,0.0002958,5.450128800000001,0.000948,17.865,0.507,28.61,-80.6,0.998,0.004,-1.621e-07,-0.005,-0.004,612.886,130.0,2.105,0.021,33.624,28.454,1.723,0.599,15400000.0,0.0,86.983,0.77,0.77,0.291,0.312,0.167,0.0007238,0.0008369,0.0004647,0.0,0.0,0.0,0.0,-1.168e-05,0.003,3.0,7.069,87.98,0.058,5.931,57.276,986.204,1114.857,0.05,0.016,1.22264,0.19558
1.65,241.011456,196.13575200000002,-14.338,643.716,14.346,18.754,0.0008302,5.7162192,0.003,17.089,0.472,28.61,-80.6,0.998,0.004,-2.954e-07,0.001,-0.001,612.886,130.0,2.105,0.021,33.601,28.454,1.716,0.578,14840000.0,0.0,80.226,0.764,0.764,0.292,0.309,0.163,0.0006883,0.0009713,0.0002125,0.0,0.0,0.0,0.0,4.58e-07,0.003,3.0,7.069,87.928,-0.019,5.975,57.158,985.035,1114.727,0.05,0.016,1.22264,0.19558
1.7,250.64679360000002,189.3530376,-13.343,621.454,13.351,19.591,0.001,5.9713368000000004,0.003,16.398,0.47,28.61,-80.6,0.998,0.009,-4.026e-07,0.0001042,-9.188e-06,612.886,130.0,2.105,0.021,33.579,28.454,1.708,0.558,14310000.0,0.0,74.246,0.76,0.76,0.292,0.307,0.16,0.001,0.003,-4.688e-05,0.0,0.0,0.0,0.0,5.157e-09,0.002,3.0,7.069,87.928,-0.052,6.032,57.045,983.907,1114.602,0.05,0.016,1.22264,0.19558
1.75,259.9544712,183.03209520000001,-12.459,600.702,12.466,20.392,0.001,6.2154816,0.003,15.622,0.435,28.61,-80.6,0.998,0.005,-4.864e-07,0.003,-0.002,612.886,130.0,2.105,0.021,33.564,28.454,1.703,0.539,13830000.0,0.0,68.929,0.755,0.755,0.293,0.305,0.158,0.0008367,0.002,6.637e-05,0.0,0.0,0.0,0.0,5.603e-06,0.002,3.0,7.069,87.914,0.047,6.548,56.935,982.817,1114.48,0.05,0.017,1.22264,0.19558
1.8,268.9567392,177.12080400000002,-11.668,581.297,11.675,21.155,0.001,6.448044,0.003,14.918,0.384,28.61,-80.6,0.998,0.009,-8.587e-07,-0.003,0.0002108,612.886,130.0,2.105,0.021,33.548,28.454,1.698,0.522,13370000.0,0.0,64.17,0.752,0.752,0.293,0.303,0.155,0.002,0.003,-0.0001841,0.0,0.0,0.0,0.0,-4.132e-06,0.002,3.0,7.069,87.842,0.086,6.923,56.829,981.764,1114.363,0.05,0.017,1.22264,0.19558
1.85,277.6728,171.576492,-10.956,563.098,10.962,21.887,0.002,6.671157600000001,0.004,14.374,0.359,28.61,-80.6,0.998,0.01,-5.681e-07,0.0004966,0.0001753,612.886,130.0,2.105,0.021,33.536,28.454,1.694,0.506,12940000.0,0.0,59.889,0.748,0.748,0.294,0.301,0.153,0.002,0.003,-0.0003573,0.0,0.0,0.0,0.0,1.426e-07,0.002,3.0,7.069,87.799,0.046,6.952,56.726,980.743,1114.25,0.05,0.017,1.22264,0.19558
1.9,286.12002720000004,166.36441200000002,-10.312,545.989,10.319,22.591,0.002,6.885736800000001,0.006,13.795,0.381,28.61,-80.6,0.998,0.011,-5.213e-07,0.001,0.0002672,612.886,130.0,2.105,0.021,33.526,28.454,1.691,0.49,12540000.0,0.0,56.025,0.745,0.745,0.294,0.299,0.151,0.002,0.003,-0.0001536,0.0,0.0,0.0,0.0,7.234e-07,0.002,3.0,7.069,87.81,0.012,7.228,56.626,979.754,1114.14,0.05,0.017,1.22264,0.19558
1.95,294.3139656,161.45286480000001,-9.73,529.866,9.736,23.266,0.003,7.0914768,0.007,13.219,0.329,28.61,-80.6,0.998,0.004,-4.5e-07,0.000145,-9.756e-05,612.886,130.0,2.105,0.021,33.52,28.454,1.689,0.476,12160000.0,0.0,52.519,0.742,0.742,0.295,0.298,0.149,0.0007158,0.001,-0.0002806,0.0,0.0,0.0,0.0,1.373e-08,0.002,3.0,7.069,87.807,0.016,7.023,56.53,978.795,1114.033,0.05,0.017,1.22264,0.19558
2,302.2695504,156.81350400000002,-9.2,514.637,9.205,23.915,0.003,7.2892920000000005,0.008,12.731,0.299,28.61,-80.6,0.998,0.009,-4.567e-07,0.001,0.0001851,612.886,130.0,2.105,0.021,33.51,28.454,1.685,0.462,11810000.0,0.0,49.328,0.739,0.739,0.295,0.297,0.148,0.001,0.002,0.0004517,0.0,0.0,0.0,0.0,1.124e-06,0.002,3.0,7.069,87.812,0.066,6.791,56.436,977.864,1113.929,0.05,0.018,1.22264,0.19558
2.05,309.9995832,152.42286000000001,-8.715,500.225,8.721,24.539,0.004,7.479487200000001,0.009,12.246,0.305,28.61,-80.6,0.998,0.007,-4.23e-07,-0.0008094,0.0001572,612.886,130.0,2.105,0.021,33.503,28.454,1.683,0.449,11470000.0,0.0,46.417,0.737,0.737,0.295,0.295,0.146,0.001,0.002,0.0003722,0.0,0.0,0.0,0.0,-4.8e-07,0.002,3.0,7.069,87.838,0.076,6.723,56.345,976.959,1113.829,0.05,0.018,1.22264,0.19558
2.1,317.51564640000004,148.2595968,-8.272,486.559,8.277,25.139,0.005,7.6623672,0.01,11.762,0.281,28.61,-80.6,0.998,0.004,-4.127e-07,-0.0001456,-4.815e-05,612.886,130.0,2.105,0.021,33.498,28.454,1.681,0.437,11150000.0,0.0,43.75,0.735,0.735,0.296,0.294,0.145,0.0005908,0.0008846,0.0003426,0.0,0.0,0.0,0.0,-1.643e-08,0.002,3.0,7.069,87.849,0.037,6.572,56.256,976.079,1113.731,0.05,0.018,1.22264,0.19558
2.15,324.8290176,144.30451200000002,-7.866,473.576,7.869,25.717,0.005,7.8385416,0.012,11.363,0.233,28.61,-80.6,0.998,0.016,-4.377e-07,0.002,-0.0004173,612.886,130.0,2.105,0.021,33.487,28.454,1.678,0.425,10850000.0,0.0,41.298,0.733,0.733,0.296,0.293,0.144,0.003,0.005,0.0003706,0.0,0.0,0.0,0.0,3.413e-06,0.002,3.0,7.069,87.86,-0.002,6.116,56.17,975.223,1113.636,0.05,0.018,1.22264,0.19558
2.2,331.94945040000005,140.5411464,-7.489,461.223,7.494,26.276,0.006,8.0089248,0.013,10.971,0.257,28.61,-80.6,0.998,0.011,-4.887e-07,-0.001,-4.476e-05,612.886,130.0,2.105,0.021,33.483,28.454,1.676,0.414,10560000.0,0.0,39.043,0.731,0.731,0.296,0.292,0.142,0.002,0.003,-0.0002405,0.0,0.0,0.0,0.0,-1.076e-06,0.002,3.0,7.069,87.898,-0.013,6.075,56.086,974.389,1113.543,0.05,0.019,1.22264,0.19558
2.25,338.8860888,136.9551744,-7.142,449.451,7.148,26.813,0.006,8.1726024,0.013,10.51,0.277,28.61,-80.6,0.998,0.036,-4.507e-07,0.002,-0.0001495,612.886,130.0,2.105,0.021,33.47,28.454,1.672,0.404,10280000.0,0.0,36.963,0.729,0.729,0.297,0.291,0.141,0.006,0.01,0.0003586,0.0,0.0,0.0,0.0,2.681e-06,0.002,3.0,7.069,87.902,0.023,6.348,56.004,973.577,1113.452,0.05,0.019,1.22264,0.19558
2.3,345.64777200000003,133.5325752,-6.823,438.215,6.827,27.327,0.006,8.329269600000002,0.014,10.088,0.227,28.61,-80.6,0.998,0.005,-5.38e-07,0.003,-0.001,612.886,130.0,2.105,0.021,33.475,28.454,1.674,0.394,10020000.0,0.0,35.036,0.727,0.727,0.297,0.29,0.14,0.0007381,0.001,-0.0002666,0.0,0.0,0.0,0.0,1.017e-05,0.002,3.0,7.069,87.84,0.085,6.47,55.924,972.786,1113.364,0.05,0.019,1.22264,0.19558
2.35,352.24181519999996,130.2599376,-6.528,427.474,6.53,27.824,0.007,8.4807552,0.014,9.778,0.18,28.61,-80.6,0.998,0.029,-4.15e-07,-0.002,-0.0003071,612.886,130.0,2.105,0.021,33.462,28.454,1.669,0.384,9769000.0,0.0,33.249,0.726,0.726,0.297,0.289,0.139,0.005,0.008,0.00032,0.0,0.0,0.0,0.0,-4.683e-06,0.002,3.0,7.069,87.772,0.088,6.561,55.847,972.014,1113.279,0.05,0.019,1.22264,0.19558
2.4,358.67583840000003,127.127508,-6.252,417.194,6.254,28.306,0.008,8.6276688,0.016,9.531,0.161,28.61,-80.6,0.998,0.038,-4.447e-07,0.001,-5.289e-05,612.886,130.0,2.105,0.021,33.455,28.454,1.667,0.375,9529000.0,0.0,31.586,0.724,0.724,0.297,0.289,0.138,0.006,0.01,-0.0001188,0.0,0.0,0.0,0.0,1.523e-06,0.002,3.0,7.069,87.763,0.043,6.415,55.771,971.26,1113.195,0.05,0.02,1.22264,0.19558
2.45,364.956852,124.12675200000001,-5.991,407.344,5.996,28.775,0.008,8.77062,0.017,9.198,0.239,28.61,-80.6,0.998,0.04,-4.564e-07,-0.0003977,-9.259e-05,612.886,130.0,2.105,0.021,33.45,28.454,1.665,0.366,9300000.0,0.0,30.041,0.723,0.723,0.298,0.288,0.137,0.006,0.011,-0.0001701,0.0,0.0,0.0,0.0,-1.747e-07,0.002,3.0,7.069,87.797,0.011,6.853,55.697,970.525,1113.113,0.05,0.02,1.22264,0.19558
2.5,371.09064720000003,121.2488304,-5.751,397.895,5.756,29.224,0.009,8.9074752,0.017,8.783,0.24,28.61,-80.6,0.998,0.05,-4.986e-07,0.003,-7.94e-05,612.886,130.0,2.105,0.021,33.443,28.454,1.663,0.358,9080000.0,0.0,28.599,0.722,0.722,0.298,0.287,0.137,0.008,0.014,0.0002374,0.0,0.0,0.0,0.0,1.206e-05,0.002,3.0,7.069,87.773,0.009,7.099,55.624,969.807,1113.033,0.05,0.02,1.22264,0.19558
2.55,377.08362480000005,118.4839896,-5.529,388.819,5.532,29.655,0.009,9.038844000000001,0.018,8.459,0.163,28.61,-80.6,0.998,0.021,-4.586e-07,-0.004,0.0001177,612.886,130.0,2.105,0.021,33.449,28.454,1.665,0.35,8869000.0,0.0,27.248,0.721,0.721,0.298,0.287,0.136,0.003,0.005,-0.000409,0.0,0.0,0.0,0.0,-1.867e-05,0.002,3.0,7.069,87.689,0.041,7.041,55.554,969.106,1112.955,0.05,0.021,1.22264,0.19558
2.6,382.9409664,115.8243048,-5.321,380.09,5.322,30.073,0.01,9.166250400000001,0.019,8.259,0.116,28.61,-80.6,0.998,0.065,-3.674e-07,-0.0009127,-8.869e-05,612.886,130.0,2.105,0.021,33.431,28.454,1.659,0.342,8666000.0,0.0,25.984,0.719,0.719,0.298,0.286,0.135,0.011,0.018,-0.00038,0.0,0.0,0.0,0.0,-1.057e-06,0.002,3.0,7.069,87.635,0.068,6.923,55.485,968.42,1112.879,0.05,0.021,1.22264,0.19558
2.65,388.6675488,113.2642896,-5.123,371.689,5.124,30.481,0.01,9.290608800000001,0.019,8.079,0.129,28.61,-80.6,0.998,0.044,-3.58e-07,0.003,5.588e-05,612.886,130.0,2.105,0.021,33.435,28.454,1.66,0.334,8470000.0,0.0,24.798,0.718,0.718,0.298,0.286,0.135,0.007,0.012,-0.0002458,0.0,0.0,0.0,0.0,1.17e-05,0.001,3.0,7.069,87.663,0.06,6.78,55.417,967.749,1112.804,0.05,0.021,1.22264,0.19558
2.7,394.2688584,110.79906720000001,-4.935,363.598,4.938,30.879,0.011,9.411919200000002,0.02,7.824,0.182,28.61,-80.6,0.998,0.028,-3.975e-07,-0.003,7.182e-06,612.886,130.0,2.105,0.021,33.438,28.454,1.661,0.327,8282000.0,0.0,23.685,0.717,0.717,0.298,0.285,0.134,0.004,0.007,3.208e-05,0.0,0.0,0.0,0.0,-1.603e-05,0.001,3.0,7.069,87.737,0.018,6.768,55.351,967.094,1112.731,0.05,0.022,1.22264,0.19558
2.75,399.7491624,108.42284640000001,-4.76,355.797,4.765,31.262,0.011,9.5286576,0.021,7.481,0.217,28.61,-80.6,0.998,0.081,-4.143e-07,0.0002626,-7.93e-05,612.886,130.0,2.105,0.021,33.417,28.454,1.654,0.32,8101000.0,0.0,22.639,0.716,0.717,0.298,0.285,0.133,0.013,0.021,-0.0004742,0.0,0.0,0.0,0.0,9.986e-08,0.001,3.0,7.069,87.773,-0.013,6.926,55.287,966.452,1112.66,0.05,0.022,1.22264,0.19558
2.8,405.1124232,106.12953120000002,-4.597,348.267,4.6,31.628,0.012,9.640214400000001,0.021,7.154,0.176,28.61,-80.6,0.998,0.039,-3.765e-07,0.004,2.862e-05,612.886,130.0,2.105,0.021,33.428,28.454,1.658,0.313,7926000.0,0.0,21.653,0.716,0.716,0.299,0.284,0.133,0.006,0.011,-0.0004018,0.0,0.0,0.0,0.0,1.992e-05,0.001,3.0,7.069,87.728,-0.0001004,6.904,55.223,965.824,1112.59,0.05,0.022,1.22264,0.19558
2.85,410.36321280000004,103.91302560000001,-4.445,340.992,4.446,31.979,0.012,9.7471992,0.022,6.931,0.111,28.61,-80.6,0.998,0.04,-4.525e-07,-0.004,0.0001141,612.886,130.0,2.105,0.021,33.426,28.454,1.657,0.307,7758000.0,0.0,20.723,0.715,0.715,0.299,0.284,0.132,0.006,0.01,-0.0004411,0.0,0.0,0.0,0.0,-1.994e-05,0.001,3.0,7.069,87.649,0.021,6.776,55.161,965.21,1112.522,0.05,0.022,1.22264,0.19558
2.9,415.504884,101.7690624,-4.3,333.957,4.301,32.322,0.012,9.851745600000001,0.022,6.791,0.082,28.61,-80.6,0.998,0.076,-4.085e-07,-0.0003641,3.194e-05,612.886,130.0,2.105,0.021,33.411,28.454,1.652,0.3,7594000.0,0.0,19.845,0.714,0.714,0.299,0.283,0.132,0.012,0.02,-0.0004638,0.0,0.0,0.0,0.0,-2.179e-07,0.001,3.0,7.069,87.61,0.045,6.657,55.101,964.608,1112.455,0.05,0.023,1.22264,0.19558
2.95,420.54139920000006,99.69520320000001,-4.16,327.152,4.162,32.658,0.013,9.9541584,0.022,6.639,0.114,28.61,-80.6,0.998,0.025,-4.093e-07,0.002,-9.889e-06,612.886,130.0,2.105,0.021,33.426,28.454,1.657,0.294,7437000.0,0.0,19.016,0.713,0.713,0.299,0.283,0.131,0.004,0.007,-0.00037,0.0,0.0,0.0,0.0,8.872e-06,0.001,3.0,7.069,87.636,0.045,6.729,55.041,964.018,1112.389,0.05,0.023,1.22264,0.19558
3,425.4755016,97.6877904,-4.029,320.563,4.031,32.985,0.013,10.053828000000001,0.023,6.454,0.116,28.61,-80.6,0.998,0.01,-4.663e-07,0.003,-6.775e-05,612.886,130.0,2.105,0.021,33.429,28.454,1.658,0.288,7284000.0,0.0,18.23,0.713,0.713,0.299,0.283,0.131,0.002,0.003,-0.000336,0.0,0.0,0.0,0.0,1.998e-05,0.001,3.0,7.069,87.691,0.026,6.417,54.983,963.44,1112.325,0.05,0.023,1.22264,0.19558
3.05,430.3111536,95.7431664,-3.904,314.179,3.907,33.303,0.013,10.1507544,0.023,6.232,0.151,28.61,-80.6,0.998,0.054,-4.003e-07,-0.002,-8.502e-05,612.886,130.0,2.105,0.021,33.412,28.454,1.653,0.283,7136000.0,0.0,17.487,0.712,0.712,0.299,0.282,0.13,0.009,0.014,0.0001012,0.0,0.0,0.0,0.0,-7.884e-06,0.001,3.0,7.069,87.745,0.019,6.465,54.926,962.874,1112.262,0.05,0.023,1.22264,0.19558
3.1,435.0507936000001,93.85797840000001,-3.786,307.991,3.79,33.608,0.014,10.243718399999999,0.023,5.966,0.166,28.61,-80.6,0.998,0.087,-4.283e-07,0.001,-5.297e-05,612.886,130.0,2.105,0.021,33.399,28.454,1.649,0.277,6993000.0,0.0,16.783,0.711,0.711,0.299,0.282,0.13,0.014,0.023,-5.826e-05,0.0,0.0,0.0,0.0,2.907e-06,0.001,3.0,7.069,87.754,0.024,6.605,54.87,962.319,1112.2,0.05,0.024,1.22264,0.19558
3.15,439.6977744,92.02826400000001,-3.677,301.985,3.679,33.9,0.014,10.33272,0.024,5.739,0.116,28.61,-80.6,0.998,0.012,-3.952e-07,0.003,-9.241e-05,612.886,130.0,2.105,0.021,33.423,28.454,1.656,0.272,6854000.0,0.0,16.113,0.711,0.711,0.299,0.282,0.13,0.002,0.003,-0.0003329,0.0,0.0,0.0,0.0,1.929e-05,0.001,3.0,7.069,87.706,0.029,6.399,54.816,961.775,1112.14,0.05,0.024,1.22264,0.19558
3.2,444.2545344,90.25128000000001,-3.573,296.153,3.573,34.183,0.014,10.4189784,0.024,5.596,0.071,28.61,-80.6,0.998,0.061,-4.166e-07,-0.002,1.988e-05,612.886,130.0,2.105,0.021,33.405,28.454,1.65,0.266,6719000.0,0.0,15.477,0.71,0.71,0.299,0.281,0.129,0.01,0.016,-0.0004511,0.0,0.0,0.0,0.0,-8.791e-06,0.001,3.0,7.069,87.651,0.03,6.203,54.762,961.242,1112.08,0.05,0.024,1.22264,0.19558
3.25,448.7238168,88.52428320000001,-3.471,290.486,3.473,34.46,0.015,10.503408,0.024,5.469,0.092,28.61,-80.6,0.998,0.021,-4.019e-07,-0.0005087,-2.68e-05,612.886,130.0,2.105,0.021,33.416,28.454,1.654,0.261,6589000.0,0.0,14.873,0.71,0.71,0.3,0.281,0.129,0.003,0.005,-0.0001127,0.0,0.0,0.0,0.0,-5.621e-07,0.001,3.0,7.069,87.631,0.029,6.449,54.709,960.719,1112.022,0.05,0.024,1.22264,0.19558
3.3,453.10775520000004,86.8460544,-3.375,284.977,3.377,34.729,0.015,10.5853992,0.025,5.308,0.106,28.61,-80.6,0.998,0.011,-4.027e-07,0.0003676,-1.467e-05,612.886,130.0,2.105,0.021,33.418,28.454,1.655,0.256,6462000.0,0.0,14.299,0.709,0.709,0.3,0.281,0.129,0.002,0.003,-3.478e-06,0.0,0.0,0.0,0.0,3.05e-07,0.001,3.0,7.069,87.626,0.033,6.573,54.657,960.206,1111.965,0.05,0.025,1.22264,0.19558
3.35,457.4090928,85.2138504,-3.283,279.62,3.286,34.99,0.015,10.664952000000001,0.025,5.122,0.12,28.61,-80.6,0.998,0.045,-4.016e-07,0.001,-1.945e-05,612.886,130.0,2.105,0.021,33.405,28.454,1.65,0.252,6338000.0,0.0,13.752,0.708,0.708,0.3,0.281,0.128,0.007,0.012,3.392e-06,0.0,0.0,0.0,0.0,4.816e-06,0.001,3.0,7.069,87.612,0.041,6.778,54.607,959.702,1111.909,0.05,0.025,1.22264,0.19558
3.4,461.6299632000001,83.62492800000001,-3.198,274.405,3.199,35.242,0.015,10.7417616,0.025,4.974,0.068,28.61,-80.6,0.998,0.053,-3.999e-07,-0.001,-4.534e-06,612.886,130.0,2.105,0.021,33.401,28.454,1.649,0.247,6217000.0,0.0,13.228,0.708,0.708,0.3,0.28,0.128,0.008,0.014,-0.0002251,0.0,0.0,0.0,0.0,-3.461e-06,0.001,3.0,7.069,87.581,0.049,6.331,54.557,959.208,1111.854,0.05,0.025,1.22264,0.19558
3.45,465.77250000000004,82.0771536,-3.114,269.326,3.116,35.488,0.016,10.8167424,0.026,4.842,0.097,28.61,-80.6,0.998,0.012,-4.062e-07,0.0006895,-9.765e-05,612.886,130.0,2.105,0.021,33.414,28.454,1.653,0.242,6101000.0,0.0,12.731,0.708,0.708,0.3,0.28,0.128,0.002,0.003,-0.0004579,0.0,0.0,0.0,0.0,1.201e-06,0.001,3.0,7.069,87.568,0.059,6.666,54.508,958.723,1111.8,0.05,0.025,1.22264,0.19558
3.5,469.838532,80.5696128,-3.036,264.378,3.037,35.726,0.016,10.8892848,0.026,4.696,0.084,28.61,-80.6,0.998,0.008,-4.104e-07,-0.0006014,-1.912e-05,612.886,130.0,2.105,0.021,33.414,28.454,1.653,0.238,5987000.0,0.0,12.255,0.707,0.707,0.3,0.28,0.127,0.001,0.002,3.61e-05,0.0,0.0,0.0,0.0,-9.482e-07,0.001,3.0,7.069,87.556,0.058,6.539,54.46,958.247,1111.747,0.05,0.025,1.22264,0.19558
3.55,473.829888,79.0998672,-2.96,259.554,2.961,35.958,0.017,10.9599984,0.026,4.575,0.07,28.61,-80.6,0.998,0.034,-4.083e-07,0.0001487,-5.884e-05,612.886,130.0,2.105,0.021,33.404,28.454,1.65,0.234,5875000.0,0.0,11.8,0.707,0.707,0.3,0.28,0.127,0.005,0.009,0.0002026,0.0,0.0,0.0,0.0,6.013e-08,0.001,3.0,7.069,87.55,0.045,6.366,54.413,957.78,1111.695,0.05,0.026,1.22264,0.19558
3.6,477.7490064,77.66639280000001,-2.887,254.849,2.889,36.183,0.017,11.0285784,0.027,4.429,0.108,28.61,-80.6,0.998,0.062,-4.01e-07,0.0004888,8.141e-05,612.886,130.0,2.105,0.021,33.393,28.454,1.646,0.229,5768000.0,0.0,11.367,0.706,0.706,0.3,0.279,0.127,0.01,0.017,-0.0001882,0.0,0.0,0.0,0.0,6.741e-07,0.001,3.0,7.069,87.552,0.026,6.763,54.367,957.321,1111.644,0.05,0.026,1.22264,0.19558
3.65,481.5971064,76.2676656,-2.819,250.258,2.82,36.401,0.017,11.095024800000001,0.027,4.296,0.059,28.61,-80.6,0.998,0.05,-4.02e-07,-0.0003776,1.301e-05,612.886,130.0,2.105,0.021,33.396,28.454,1.647,0.225,5661000.0,0.0,10.949,0.706,0.706,0.3,0.279,0.127,0.008,0.013,-0.0004706,0.0,0.0,0.0,0.0,-4.172e-07,0.0009959,3.0,7.069,87.538,0.012,6.218,54.322,956.87,1111.594,0.05,0.026,1.22264,0.19558
3.7,485.37632160000004,74.9012472,-2.753,245.776,2.754,36.614,0.018,11.1599472,0.028,4.211,0.051,28.61,-80.6,0.998,0.062,-3.975e-07,0.001,2.937e-05,612.886,130.0,2.105,0.021,33.391,28.454,1.646,0.221,5558000.0,0.0,10.551,0.706,0.706,0.3,0.279,0.126,0.01,0.016,0.0002662,0.0,0.0,0.0,0.0,3.406e-06,0.0009781,3.0,7.069,87.544,0.011,6.055,54.277,956.428,1111.545,0.05,0.027,1.22264,0.19558
3.75,489.0878712,73.5671376,-2.689,241.397,2.69,36.822,0.018,11.223345600000002,0.028,4.125,0.057,28.61,-80.6,0.998,0.041,-4.367e-07,0.003,-3.088e-05,612.886,130.0,2.105,0.021,33.397,28.454,1.648,0.217,5458000.0,0.0,10.169,0.705,0.705,0.3,0.279,0.126,0.007,0.01,-0.0001293,0.0,0.0,0.0,0.0,1.968e-05,0.0009607,3.0,7.069,87.579,0.016,5.91,54.233,955.993,1111.496,0.05,0.027,1.22264,0.19558
3.8,492.733584,72.26381280000001,-2.628,237.119,2.629,37.026,0.018,11.285524800000001,0.028,4.012,0.082,28.61,-80.6,0.998,0.035,-4.223e-07,-0.003,-1.058e-05,612.886,130.0,2.105,0.021,33.398,28.454,1.648,0.214,5359000.0,0.0,9.804,0.705,0.705,0.3,0.279,0.126,0.006,0.009,0.0004842,0.0,0.0,0.0,0.0,-2.14e-05,0.0009436,3.0,7.069,87.628,0.027,5.967,54.19,955.567,1111.449,0.05,0.028,1.22264,0.19558
3.85,496.3146792,70.99005360000001,-2.568,232.938,2.571,37.223,0.019,11.3455704,0.029,3.857,0.107,28.61,-80.6,0.998,0.116,-4.031e-07,-0.0005344,-2.199e-05,612.886,130.0,2.105,0.021,33.37,28.454,1.639,0.21,5264000.0,0.0,9.455,0.705,0.705,0.3,0.279,0.126,0.019,0.03,0.0001212,0.0,0.0,0.0,0.0,-9.642e-07,0.000927,3.0,7.069,87.659,0.038,6.152,54.148,955.147,1111.402,0.05,0.029,1.22264,0.19558
3.9,499.83298560000003,69.744336,-2.512,228.85,2.515,37.411,0.019,11.4028728,0.029,3.676,0.113,28.61,-80.6,0.998,0.142,-4.172e-07,0.003,2.035e-07,612.886,130.0,2.105,0.021,33.36,28.454,1.635,0.206,5170000.0,0.0,9.12,0.704,0.704,0.3,0.278,0.126,0.023,0.037,0.0002947,0.0,0.0,0.0,0.0,2.433e-05,0.0009107,3.0,7.069,87.64,0.046,6.332,54.107,954.736,1111.356,0.05,0.029,1.22264,0.19558
3.95,503.2897224,68.5254408,-2.46,224.849,2.461,37.591,0.019,11.457736800000001,0.029,3.525,0.074,28.61,-80.6,0.998,0.035,-4.082e-07,0.005,-6.338e-05,612.886,130.0,2.105,0.021,33.395,28.454,1.647,0.202,5078000.0,0.0,8.796,0.704,0.704,0.3,0.278,0.125,0.006,0.009,-0.0002493,0.0,0.0,0.0,0.0,7.873e-05,0.0008948,3.0,7.069,87.569,0.046,6.141,54.066,954.349,1111.311,0.05,0.029,1.22264,0.19558
4,506.685804,67.33153920000001,-2.41,220.931,2.41,37.765,0.019,11.510772000000001,0.029,3.432,0.045,28.61,-80.6,0.998,0.057,-4.11e-07,-0.004,-4.364e-05,612.886,130.0,2.105,0.021,33.387,28.454,1.644,0.199,4988000.0,0.0,8.486,0.704,0.704,0.3,0.278,0.125,0.009,0.015,-0.000371,0.0,0.0,0.0,0.0,-7.154e-05,0.0008792,3.0,7.069,87.484,0.035,6.045,54.026,953.97,1111.267,0.05,0.03,1.22264,0.19558
4.05,510.02305920000003,66.16232640000001,-2.36,217.094,2.361,37.934,0.02,11.5622832,0.03,3.36,0.047,28.61,-80.6,0.998,0.05,-4.4e-07,-0.003,5.709e-05,612.886,130.0,2.105,0.021,33.388,28.454,1.645,0.196,4901000.0,0.0,8.189,0.703,0.703,0.3,0.278,0.125,0.008,0.014,-0.0003826,0.0,0.0,0.0,0.0,-4.007e-05,0.0008639,3.0,7.069,87.416,0.024,6.246,53.986,953.598,1111.224,0.05,0.03,1.22264,0.19558
4.1,513.3024024,65.0162784,-2.315,213.334,2.315,38.101,0.02,11.6131848,0.03,3.329,0.003,28.61,-80.6,0.998,0.211,-4.055e-07,-0.0003663,7.001e-07,612.886,130.0,2.105,0.021,33.334,28.454,1.627,0.192,4814000.0,0.0,7.902,0.703,0.703,0.3,0.278,0.125,0.034,0.055,-8.569e-05,0.0,0.0,0.0,0.0,-5.401e-07,0.000849,3.0,7.069,87.379,0.021,5.623,53.948,953.232,1111.181,0.05,0.03,1.22264,0.19558
4.15,516.5250528,63.8930904,-2.267,209.649,2.267,38.267,0.02,11.663781600000002,0.03,3.309,0.03,28.61,-80.6,0.998,0.096,-4.222e-07,0.003,-7.052e-06,612.886,130.0,2.105,0.021,33.371,28.454,1.639,0.189,4730000.0,0.0,7.626,0.703,0.703,0.3,0.278,0.125,0.015,0.025,6.703e-05,0.0,0.0,0.0,0.0,2.878e-05,0.0008343,3.0,7.069,87.405,0.024,5.85,53.91,952.873,1111.139,0.05,0.031,1.22264,0.19558
4.2,519.6922296,62.792457600000006,-2.222,206.037,2.223,38.431,0.021,11.7137688,0.031,3.251,0.04,28.61,-80.6,0.998,0.052,-4.208e-07,0.004,-1.769e-05,612.886,130.0,2.105,0.021,33.385,28.454,1.644,0.186,4648000.0,0.0,7.36,0.703,0.703,0.301,0.278,0.124,0.008,0.014,2.535e-06,0.0,0.0,0.0,0.0,7.335e-05,0.0008199,3.0,7.069,87.469,0.029,5.669,53.872,952.52,1111.098,0.05,0.031,1.22264,0.19558
4.25,522.8048472,61.713160800000004,-2.18,202.496,2.18,38.592,0.021,11.7628416,0.031,3.181,0.047,28.61,-80.6,0.998,0.017,-4.04e-07,0.005,4.775e-05,612.886,130.0,2.105,0.021,33.397,28.454,1.648,0.182,4566000.0,0.0,7.105,0.702,0.702,0.301,0.277,0.124,0.003,0.004,-0.000184,0.0,0.0,0.0,0.0,0.0001019,0.0008058,3.0,7.069,87.551,0.033,5.423,53.836,952.172,1111.057,0.05,0.031,1.22264,0.19558
4.3,525.86382,60.6548952,-2.138,199.023,2.139,38.749,0.021,11.810695200000001,0.031,3.096,0.057,28.61,-80.6,0.998,0.037,-4.206e-07,-0.005,3.413e-05,612.886,130.0,2.105,0.021,33.389,28.454,1.645,0.179,4487000.0,0.0,6.858,0.702,0.702,0.301,0.277,0.124,0.006,0.01,0.0001342,0.0,0.0,0.0,0.0,-9.694e-05,0.000792,3.0,7.069,87.637,0.043,5.25,53.8,951.831,1111.017,0.05,0.031,1.22264,0.19558
4.35,528.870672,59.61644160000001,-2.098,195.614,2.099,38.901,0.021,11.857024800000001,0.031,2.978,0.086,28.61,-80.6,0.998,0.163,-3.957e-07,-0.003,-1.907e-05,612.886,130.0,2.105,0.021,33.346,28.454,1.631,0.176,4409000.0,0.0,6.623,0.702,0.702,0.301,0.277,0.124,0.026,0.043,0.0001208,0.0,0.0,0.0,0.0,-3.548e-05,0.0007785,3.0,7.069,87.706,0.051,5.43,53.764,951.496,1110.978,0.05,0.032,1.22264,0.19558
4.4,531.8257080000001,58.5971904,-2.06,192.269,2.061,39.047,0.022,11.9015256,0.032,2.846,0.076,28.61,-80.6,0.998,0.135,-4.074e-07,-0.0002542,1.347e-05,612.886,130.0,2.105,0.021,33.355,28.454,1.634,0.173,4333000.0,0.0,6.394,0.702,0.702,0.301,0.277,0.124,0.022,0.036,0.0004377,0.0,0.0,0.0,0.0,-3.202e-07,0.0007651,3.0,7.069,87.731,0.052,5.226,53.729,951.166,1110.94,0.05,0.032,1.22264,0.19558
4.45,534.730452,57.5962272,-2.023,188.983,2.025,39.186,0.022,11.9438928,0.032,2.71,0.09,28.61,-80.6,0.998,0.205,-4.036e-07,0.003,9.642e-06,612.886,130.0,2.105,0.021,33.331,28.454,1.626,0.17,4258000.0,0.0,6.175,0.701,0.702,0.301,0.277,0.124,0.033,0.054,-0.0002679,0.0,0.0,0.0,0.0,3.539e-05,0.0007521,3.0,7.069,87.71,0.049,5.532,53.695,950.842,1110.902,0.05,0.033,1.22264,0.19558
4.5,537.5858184,56.6129424,-1.987,185.756,1.99,39.317,0.022,11.9838216,0.032,2.552,0.103,28.61,-80.6,0.998,0.268,-4.043e-07,0.006,-2.36e-05,612.886,130.0,2.105,0.021,33.309,28.454,1.619,0.167,4185000.0,0.0,5.965,0.701,0.701,0.301,0.277,0.124,0.043,0.07,0.0004628,0.0,0.0,0.0,0.0,0.0002152,0.0007392,3.0,7.069,87.629,0.045,6.02,53.661,950.524,1110.865,0.05,0.036,1.22264,0.19558
4.55,540.392112,55.646421600000004,-1.955,182.584,1.956,39.442,0.022,12.0219216,0.032,2.434,0.045,28.61,-80.6,0.998,0.009,-3.927e-07,0.008,-0.0002361,612.886,130.0,2.105,0.021,33.395,28.454,1.647,0.165,4112000.0,0.0,5.757,0.701,0.701,0.301,0.277,0.124,0.001,0.002,0.0001339,0.0,0.0,0.0,0.0,0.0003872,0.0007266,3.0,7.069,87.488,0.045,5.586,53.628,950.211,1110.828,0.05,0.036,1.22264,0.19558
4.6,543.1505520000001,54.69575040000001,-1.923,179.464,1.923,39.562,0.023,12.058497599999999,0.033,2.37,0.037,28.61,-80.6,0.998,0.031,-4.004e-07,-0.008,-8.208e-05,612.886,130.0,2.105,0.021,33.388,28.454,1.645,0.162,4042000.0,0.0,5.56,0.701,0.701,0.301,0.277,0.123,0.005,0.009,0.0002511,0.0,0.0,0.0,0.0,-0.0003879,0.0007142,3.0,7.069,87.336,0.044,5.88,53.596,949.903,1110.792,0.05,0.037,1.22264,0.19558
4.65,545.8620528,53.760624,-1.891,176.396,1.892,39.679,0.023,12.094159200000002,0.033,2.317,0.029,28.61,-80.6,0.998,0.073,-4.374e-07,-0.008,-4.116e-06,612.886,130.0,2.105,0.021,33.373,28.454,1.64,0.159,3972000.0,0.0,5.37,0.701,0.701,0.301,0.277,0.123,0.012,0.019,-0.0004317,0.0,0.0,0.0,0.0,-0.0003323,0.000702,3.0,7.069,87.193,0.039,6.101,53.564,949.601,1110.757,0.05,0.037,1.22264,0.19558
4.7,548.5269192,52.8413472,-1.859,173.378,1.861,39.793,0.023,12.1289064,0.033,2.24,0.065,28.61,-80.6,0.998,0.101,-4.21e-07,0.008,4.199e-06,612.886,130.0,2.105,0.021,33.363,28.454,1.636,0.156,3904000.0,0.0,5.188,0.701,0.701,0.301,0.277,0.123,0.016,0.026,0.0004396,0.0,0.0,0.0,0.0,0.0003626,0.00069,3.0,7.069,87.06,0.035,6.981,53.532,949.303,1110.722,0.05,0.038,1.22264,0.19558
4.75,551.1463704,51.93609120000001,-1.832,170.408,1.832,39.903,0.023,12.1624344,0.034,2.177,0.016,28.61,-80.6,0.998,0.154,-3.715e-07,-0.007,-2.735e-05,612.886,130.0,2.105,0.021,33.345,28.454,1.63,0.154,3836000.0,0.0,5.009,0.7,0.7,0.301,0.276,0.123,0.025,0.041,0.0003445,0.0,0.0,0.0,0.0,-0.0003316,0.0006781,3.0,7.069,86.92,0.036,6.514,53.501,949.011,1110.688,0.05,0.038,1.22264,0.19558
4.8,553.7207112000001,51.044856,-1.803,167.484,1.803,40.011,0.024,12.195352800000002,0.034,2.149,0.021,28.61,-80.6,0.998,0.135,-4.048e-07,-0.005,-1.404e-05,612.886,130.0,2.105,0.021,33.351,28.454,1.632,0.151,3770000.0,0.0,4.837,0.7,0.7,0.301,0.276,0.123,0.022,0.035,-9.913e-05,0.0,0.0,0.0,0.0,-0.0001926,0.0006665,3.0,7.069,86.806,0.033,6.8,53.471,948.724,1110.655,0.05,0.038,1.22264,0.19558
4.85,556.2511608,50.16733680000001,-1.776,164.605,1.776,40.118,0.024,12.227966400000001,0.034,2.128,0.007,28.61,-80.6,0.998,0.211,-4.297e-07,-0.003,1.705e-05,612.886,130.0,2.105,0.021,33.325,28.454,1.624,0.148,3705000.0,0.0,4.67,0.7,0.7,0.301,0.276,0.123,0.034,0.055,-6.585e-05,0.0,0.0,0.0,0.0,-7.266e-05,0.000655,3.0,7.069,86.727,0.031,6.672,53.441,948.442,1110.622,0.05,0.039,1.22264,0.19558
4.9,558.7377192,49.302924000000004,-1.75,161.769,1.75,40.224,0.024,12.260275199999999,0.035,2.13,0.008,28.61,-80.6,0.998,0.3,-4.12e-07,-0.0002236,5.364e-06,612.886,130.0,2.105,0.021,33.295,28.454,1.614,0.146,3640000.0,0.0,4.509,0.7,0.7,0.301,0.276,0.123,0.048,0.078,0.0004176,0.0,0.0,0.0,0.0,-3.496e-07,0.0006438,3.0,7.069,86.695,0.031,6.358,53.412,948.164,1110.589,0.05,0.039,1.22264,0.19558
4.95,561.1816056,48.451312800000004,-1.723,158.976,1.723,40.331,0.025,12.292888800000002,0.035,2.119,0.021,28.61,-80.6,0.998,0.126,-4.137e-07,0.002,-8.456e-06,612.886,130.0,2.105,0.021,33.352,28.454,1.633,0.143,3577000.0,0.0,4.353,0.7,0.7,0.301,0.276,0.123,0.02,0.033,0.0003509,0.0,0.0,0.0,0.0,3.397e-05,0.0006326,3.0,7.069,86.716,0.032,6.66,53.383,947.892,1110.557,0.05,0.039,1.22264,0.19558
5,563.5831248000001,47.61280800000001,-1.698,156.224,1.698,40.436,0.025,12.3248928,0.035,2.102,0.002,28.61,-80.6,0.998,0.238,-4.06e-07,0.004,-3.885e-06,612.886,130.0,2.105,0.021,33.315,28.454,1.62,0.141,3514000.0,0.0,4.201,0.7,0.7,0.301,0.276,0.123,0.038,0.062,-0.000107,0.0,0.0,0.0,0.0,0.0001323,0.0006217,3.0,7.069,86.773,0.033,6.049,53.355,947.624,1110.526,0.05,0.04,1.22264,0.19558
5.05,565.9431912,46.7861904,-1.674,153.512,1.674,40.541,0.025,12.3568968,0.035,2.101,0.0007441,28.61,-80.6,0.998,0.237,-4.006e-07,0.007,1.043e-05,612.886,130.0,2.105,0.021,33.315,28.454,1.62,0.138,3452000.0,0.0,4.054,0.699,0.7,0.301,0.276,0.122,0.038,0.062,0.0003158,0.0,0.0,0.0,0.0,0.0003525,0.0006109,3.0,7.069,86.872,0.035,5.651,53.327,947.361,1110.495,0.05,0.04,1.22264,0.19558
5.1,568.2621096,45.9717648,-1.648,150.84,1.648,40.646,0.025,12.3889008,0.036,2.058,0.05,28.61,-80.6,0.998,0.104,-4.539e-07,-0.007,2.676e-05,612.886,130.0,2.105,0.021,33.359,28.454,1.635,0.136,3392000.0,0.0,3.913,0.699,0.699,0.301,0.276,0.122,0.017,0.027,-0.0004045,0.0,0.0,0.0,0.0,-0.0004371,0.0006003,3.0,7.069,87.005,0.039,6.122,53.3,947.102,1110.465,0.05,0.04,1.22264,0.19558
5.15,570.5404896,45.1695312,-1.625,148.207,1.626,40.746,0.026,12.4193808,0.036,1.97,0.058,28.61,-80.6,0.998,0.177,-4.298e-07,-0.006,4.398e-06,612.886,130.0,2.105,0.021,33.334,28.454,1.627,0.134,3332000.0,0.0,3.776,0.699,0.699,0.301,0.276,0.122,0.028,0.047,-0.000293,0.0,0.0,0.0,0.0,-0.0002964,0.0005898,3.0,7.069,87.126,0.042,5.932,53.273,946.848,1110.436,0.05,0.041,1.22264,0.19558
5.2,572.7792456,44.3785752,-1.602,145.611,1.604,40.842,0.026,12.4486416,0.036,1.866,0.07,28.61,-80.6,0.998,0.284,-4.334e-07,-0.004,7.951e-06,612.886,130.0,2.105,0.021,33.298,28.454,1.615,0.131,3273000.0,0.0,3.644,0.699,0.699,0.301,0.276,0.122,0.046,0.074,-6.078e-05,0.0,0.0,0.0,0.0,-0.0001201,0.0005795,3.0,7.069,87.215,0.047,5.947,53.246,946.598,1110.406,0.05,0.042,1.22264,0.19558
5.25,574.9783776,43.5982872,-1.581,143.05,1.582,40.933,0.026,12.4763784,0.037,1.761,0.06,28.61,-80.6,0.998,0.233,-4.109e-07,-0.001,-1.689e-05,612.886,130.0,2.105,0.021,33.314,28.454,1.62,0.129,3215000.0,0.0,3.515,0.699,0.699,0.301,0.276,0.122,0.038,0.061,-0.0002042,0.0,0.0,0.0,0.0,-1.61e-05,0.0005693,3.0,7.069,87.259,0.051,5.669,53.22,946.353,1110.378,0.05,0.042,1.22264,0.19558
5.3,577.1391048,42.8280576,-1.561,140.522,1.561,41.019,0.026,12.5025912,0.037,1.678,0.044,28.61,-80.6,0.998,0.131,-4.164e-07,0.0002761,-2.273e-06,612.886,130.0,2.105,0.021,33.348,28.454,1.631,0.127,3157000.0,0.0,3.39,0.699,0.699,0.301,0.276,0.122,0.021,0.034,0.0002997,0.0,0.0,0.0,0.0,7.067e-07,0.0005592,3.0,7.069,87.267,0.054,5.35,53.195,946.112,1110.35,0.05,0.042,1.22264,0.19558
5.35,579.2614272,42.067581600000004,-1.541,138.026,1.542,41.101,0.027,12.5275848,0.037,1.621,0.027,28.61,-80.6,0.998,0.000601,-4.18e-07,0.0,0.0,612.886,130.0,2.105,0.021,33.391,28.454,1.646,0.124,3100000.0,0.0,3.268,0.699,0.699,0.301,0.276,0.122,9.585e-05,-0.0003407,-0.0002334,0.0,0.0,0.0,0.0,0.0,0.0005493,3.0,7.069,87.254,0.055,4.995,53.17,945.875,1110.322,0.05,0.042,1.22264,0.19558
5.4,581.3459544000001,41.3165544,-1.522,135.562,1.522,41.181,0.027,12.5519688,0.037,1.566,0.041,28.61,-80.6,0.998,0.125,-4.177e-07,0.001,-3.561e-06,612.886,130.0,2.105,0.021,33.349,28.454,1.632,0.122,3045000.0,0.0,3.152,0.699,0.699,0.301,0.276,0.122,0.02,0.033,0.000364,0.0,0.0,0.0,0.0,1.898e-05,0.0005395,3.0,7.069,87.236,0.053,5.28,53.145,945.643,1110.295,0.05,0.043,1.22264,0.19558
5.45,583.3932960000001,40.5752808,-1.502,133.129,1.503,41.257,0.027,12.5751336,0.038,1.485,0.059,28.61,-80.6,0.998,0.287,-4.181e-07,0.003,1.242e-06,612.886,130.0,2.105,0.021,33.295,28.454,1.614,0.12,2990000.0,0.0,3.041,0.698,0.699,0.301,0.275,0.122,0.046,0.075,2.29e-05,0.0,0.0,0.0,0.0,9.542e-05,0.0005298,3.0,7.069,87.198,0.05,5.703,53.121,945.414,1110.268,0.05,0.043,1.22264,0.19558
5.5,585.4037568,39.8431512,-1.485,130.726,1.485,41.33,0.027,12.597384,0.038,1.407,0.038,28.61,-80.6,0.998,0.12,-4.156e-07,0.005,-4.462e-06,612.886,130.0,2.105,0.021,33.35,28.454,1.632,0.118,2935000.0,0.0,2.93,0.698,0.698,0.301,0.275,0.122,0.019,0.031,-0.000483,0.0,0.0,0.0,0.0,0.0002232,0.0005202,3.0,7.069,87.127,0.046,5.423,53.098,945.19,1110.242,0.05,0.043,1.22264,0.19558
5.55,587.3776416000001,39.119556,-1.467,128.352,1.467,41.398,0.028,12.6181104,0.038,1.347,0.036,28.61,-80.6,0.998,0.108,-4.213e-07,0.005,5.531e-06,612.886,130.0,2.105,0.021,33.354,28.454,1.633,0.116,2882000.0,0.0,2.824,0.698,0.698,0.301,0.275,0.122,0.017,0.028,-0.0002218,0.0,0.0,0.0,0.0,0.0003278,0.0005108,3.0,7.069,87.037,0.043,5.54,53.074,944.97,1110.216,0.05,0.044,1.22264,0.19558
5.6,589.3158648,38.4044952,-1.449,126.006,1.45,41.464,0.028,12.638227200000001,0.039,1.273,0.055,28.61,-80.6,0.998,0.287,-4.068e-07,0.007,1.305e-05,612.886,130.0,2.105,0.021,33.294,28.454,1.613,0.114,2830000.0,0.0,2.723,0.698,0.698,0.301,0.275,0.122,0.046,0.074,-0.0002381,0.0,0.0,0.0,0.0,0.0005393,0.0005014,3.0,7.069,86.928,0.04,6.127,53.051,944.754,1110.191,0.05,0.044,1.22264,0.19558
5.65,591.2184264,37.6979688,-1.433,123.687,1.434,41.526,0.028,12.657124800000002,0.039,1.2,0.036,28.61,-80.6,0.998,0.113,-4.335e-07,0.008,2.186e-05,612.886,130.0,2.105,0.021,33.352,28.454,1.633,0.112,2777000.0,0.0,2.622,0.698,0.698,0.301,0.275,0.122,0.018,0.029,0.0004317,0.0,0.0,0.0,0.0,0.0007976,0.0004922,3.0,7.069,86.79,0.037,5.976,53.029,944.541,1110.166,0.05,0.044,1.22264,0.19558
5.7,593.0856312,36.99906240000001,-1.417,121.393,1.418,41.584,0.028,12.674803200000001,0.039,1.146,0.031,28.61,-80.6,0.998,0.056,-4.165e-07,0.009,2.15e-05,612.886,130.0,2.105,0.021,33.371,28.454,1.639,0.11,2725000.0,0.0,2.525,0.698,0.698,0.301,0.275,0.122,0.009,0.014,-0.0003235,0.0,0.0,0.0,0.0,0.0009461,0.0004831,3.0,7.069,86.638,0.038,6.104,53.007,944.333,1110.142,0.05,0.045,1.22264,0.19558
5.75,594.9183936000001,36.307776000000004,-1.403,119.125,1.403,41.641,0.029,12.6921768,0.04,1.111,0.014,28.61,-80.6,0.998,0.122,-4.369e-07,-0.008,2.83e-05,612.886,130.0,2.105,0.021,33.348,28.454,1.631,0.107,2674000.0,0.0,2.431,0.698,0.698,0.301,0.275,0.122,0.02,0.033,0.0002298,0.0,0.0,0.0,0.0,-0.0009252,0.000474,3.0,7.069,86.481,0.038,5.955,52.985,944.129,1110.118,0.05,0.046,1.22264,0.19558
5.8,596.7167136,35.6231952,-1.389,116.88,1.389,41.696,0.029,12.7089408,0.04,1.101,0.001,28.61,-80.6,0.998,0.295,-4.049e-07,-0.007,3.821e-06,612.886,130.0,2.105,0.021,33.291,28.454,1.612,0.105,2623000.0,0.0,2.34,0.698,0.698,0.301,0.275,0.121,0.048,0.078,-9.546e-05,0.0,0.0,0.0,0.0,-0.00069,0.0004651,3.0,7.069,86.338,0.039,5.77,52.964,943.928,1110.095,0.05,0.046,1.22264,0.19558
5.85,598.480896,34.9459296,-1.374,114.658,1.374,41.751,0.029,12.7257048,0.04,1.107,0.005,28.61,-80.6,0.998,0.351,-4.247e-07,-0.005,1.528e-05,612.886,130.0,2.105,0.021,33.272,28.454,1.606,0.103,2573000.0,0.0,2.252,0.698,0.698,0.301,0.275,0.121,0.057,0.091,-0.0002877,0.0,0.0,0.0,0.0,-0.0003846,0.0004563,3.0,7.069,86.226,0.042,5.748,52.943,943.731,1110.072,0.05,0.046,1.22264,0.19558
5.9,600.2112456,34.2759792,-1.359,112.459,1.359,41.806,0.03,12.7424688,0.04,1.105,0.008,28.61,-80.6,0.998,0.203,-4.095e-07,-0.004,2.287e-06,612.886,130.0,2.105,0.021,33.32,28.454,1.622,0.102,2524000.0,0.0,2.166,0.698,0.698,0.301,0.275,0.121,0.033,0.053,-0.0003182,0.0,0.0,0.0,0.0,-0.0001972,0.0004475,3.0,7.069,86.147,0.045,6.069,52.923,943.538,1110.049,0.05,0.046,1.22264,0.19558
5.95,601.9083720000001,33.6127344,-1.346,110.284,1.346,41.861,0.03,12.759537600000002,0.041,1.1,0.0003008,28.61,-80.6,0.998,0.305,-4.154e-07,-0.002,1.647e-05,612.886,130.0,2.105,0.021,33.287,28.454,1.611,0.1,2475000.0,0.0,2.083,0.698,0.698,0.301,0.275,0.121,0.049,0.079,0.0004438,0.0,0.0,0.0,0.0,-7.895e-05,0.0004389,3.0,7.069,86.093,0.049,5.841,52.903,943.349,1110.027,0.05,0.047,1.22264,0.19558
6,603.57258,32.9561952,-1.333,108.129,1.333,41.917,0.03,12.776301600000002,0.041,1.106,0.007,28.61,-80.6,0.998,0.394,-4.146e-07,-0.0004611,1.829e-05,612.886,130.0,2.105,0.021,33.257,28.454,1.601,0.098,2426000.0,0.0,2.002,0.697,0.698,0.301,0.275,0.121,0.064,0.102,-0.000102,0.0,0.0,0.0,0.0,-3.324e-06,0.0004303,3.0,7.069,86.068,0.054,5.578,52.883,943.163,1110.005,0.05,0.047,1.22264,0.19558
6.05,605.2041744,32.3063616,-1.318,105.997,1.318,41.972,0.03,12.7930656,0.041,1.103,0.011,28.61,-80.6,0.998,0.153,-4.13e-07,0.0009026,2.761e-05,612.886,130.0,2.105,0.021,33.336,28.454,1.628,0.096,2378000.0,0.0,1.923,0.697,0.697,0.301,0.275,0.121,0.025,0.04,-0.0004697,0.0,0.0,0.0,0.0,1.325e-05,0.0004218,3.0,7.069,86.074,0.059,5.891,52.864,942.982,1109.984,0.05,0.048,1.22264,0.19558
6.1,606.8034600000001,31.662928800000003,-1.305,103.887,1.305,42.027,0.031,12.8098296,0.042,1.081,0.015,28.61,-80.6,0.998,0.085,-4.181e-07,0.001,3.161e-05,612.886,130.0,2.105,0.021,33.359,28.454,1.635,0.094,2331000.0,0.0,1.847,0.697,0.697,0.301,0.275,0.121,0.014,0.022,0.0001933,0.0,0.0,0.0,0.0,3.719e-05,0.0004134,3.0,7.069,86.096,0.063,5.853,52.845,942.803,1109.963,0.05,0.048,1.22264,0.19558
6.15,608.3707416000001,31.026201600000004,-1.292,101.797,1.292,42.08,0.031,12.825984,0.042,1.043,0.032,28.61,-80.6,0.998,0.171,-4.141e-07,-0.001,8.61e-06,612.886,130.0,2.105,0.021,33.33,28.454,1.625,0.092,2284000.0,0.0,1.774,0.697,0.697,0.301,0.275,0.121,0.027,0.044,0.0004212,0.0,0.0,0.0,0.0,-2.948e-05,0.0004051,3.0,7.069,86.123,0.065,6.165,52.827,942.628,1109.943,0.05,0.048,1.22264,0.19558
6.2,609.906324,30.3955704,-1.28,99.728,1.28,42.131,0.031,12.8415288,0.042,0.987,0.037,28.61,-80.6,0.998,0.263,-4.145e-07,-0.0003193,1.857e-06,612.886,130.0,2.105,0.021,33.299,28.454,1.615,0.09,2238000.0,0.0,1.703,0.697,0.697,0.301,0.275,0.121,0.042,0.068,-0.0004098,0.0,0.0,0.0,0.0,-1.872e-06,0.0003969,3.0,7.069,86.138,0.066,6.206,52.809,942.457,1109.923,0.05,0.048,1.22264,0.19558
6.25,611.4102072000001,29.771035200000004,-1.268,97.678,1.269,42.178,0.031,12.8558544,0.043,0.929,0.036,28.61,-80.6,0.998,0.273,-4.156e-07,0.0008297,8.631e-06,612.886,130.0,2.105,0.021,33.296,28.454,1.614,0.088,2192000.0,0.0,1.633,0.697,0.697,0.301,0.275,0.121,0.044,0.071,0.0004961,0.0,0.0,0.0,0.0,1.317e-05,0.0003887,3.0,7.069,86.133,0.064,6.141,52.791,942.289,1109.903,0.05,0.049,1.22264,0.19558
6.3,612.8833056,29.151986400000002,-1.257,95.647,1.258,42.223,0.032,12.8695704,0.043,0.869,0.039,28.61,-80.6,0.998,0.344,-4.112e-07,0.002,1.266e-05,612.886,130.0,2.105,0.021,33.272,28.454,1.606,0.086,2146000.0,0.0,1.566,0.697,0.697,0.301,0.275,0.121,0.056,0.089,0.0001606,0.0,0.0,0.0,0.0,8.687e-05,0.0003806,3.0,7.069,86.107,0.061,6.218,52.774,942.125,1109.884,0.05,0.049,1.22264,0.19558
6.35,614.3256192,28.538119200000004,-1.247,93.632,1.247,42.265,0.032,12.882372,0.043,0.819,0.024,28.61,-80.6,0.998,0.106,-4.207e-07,0.003,-3.358e-06,612.886,130.0,2.105,0.021,33.351,28.454,1.632,0.085,2100000.0,0.0,1.499,0.697,0.697,0.301,0.275,0.121,0.017,0.028,-6.314e-05,0.0,0.0,0.0,0.0,0.000184,0.0003726,3.0,7.069,86.06,0.057,5.801,52.757,941.964,1109.865,0.05,0.049,1.22264,0.19558
6.4,615.737148,27.9291288,-1.237,91.635,1.237,42.306,0.032,12.8948688,0.044,0.789,0.014,28.61,-80.6,0.998,0.059,-4.15e-07,-0.003,-1.569e-05,612.886,130.0,2.105,0.021,33.366,28.454,1.638,0.083,2055000.0,0.0,1.435,0.697,0.697,0.301,0.275,0.121,0.009,0.016,0.0002278,0.0,0.0,0.0,0.0,-0.0002023,0.0003646,3.0,7.069,86.005,0.053,5.514,52.74,941.807,1109.847,0.05,0.049,1.22264,0.19558
6.45,617.1185016000001,27.32532,-1.226,89.653,1.226,42.344,0.033,12.906451200000001,0.044,0.761,0.02,28.61,-80.6,0.998,0.076,-4.145e-07,0.003,2.181e-05,612.886,130.0,2.105,0.021,33.361,28.454,1.636,0.081,2011000.0,0.0,1.374,0.697,0.697,0.301,0.275,0.121,0.012,0.02,0.000385,0.0,0.0,0.0,0.0,0.0002154,0.0003568,3.0,7.069,85.95,0.049,5.706,52.724,941.653,1109.829,0.05,0.049,1.22264,0.19558
6.5,618.4699848,26.726692800000002,-1.216,87.689,1.216,42.381,0.033,12.9177288,0.044,0.72,0.031,28.61,-80.6,0.998,0.29,-4.084e-07,0.004,2.234e-05,612.886,130.0,2.105,0.021,33.289,28.454,1.612,0.079,1967000.0,0.0,1.316,0.697,0.697,0.301,0.275,0.121,0.047,0.075,-0.0003957,0.0,0.0,0.0,0.0,0.0003264,0.0003489,3.0,7.069,85.89,0.046,6.028,52.708,941.502,1109.811,0.05,0.05,1.22264,0.19558
6.55,619.7912928,26.1329424,-1.206,85.741,1.206,42.416,0.033,12.9283968,0.045,0.668,0.033,28.61,-80.6,0.998,0.367,-4.142e-07,0.005,1.882e-05,612.886,130.0,2.105,0.021,33.264,28.454,1.603,0.078,1924000.0,0.0,1.258,0.697,0.697,0.301,0.275,0.121,0.059,0.095,-0.000116,0.0,0.0,0.0,0.0,0.0005666,0.0003412,3.0,7.069,85.814,0.042,6.159,52.692,941.354,1109.794,0.05,0.05,1.22264,0.19558
6.6,621.08334,25.5440688,-1.197,83.808,1.197,42.448,0.033,12.938150400000001,0.045,0.626,0.019,28.61,-80.6,0.998,0.082,-4.114e-07,0.005,7.316e-05,612.886,130.0,2.105,0.021,33.358,28.454,1.635,0.076,1880000.0,0.0,1.201,0.697,0.697,0.301,0.275,0.121,0.013,0.021,0.0003636,0.0,0.0,0.0,0.0,0.0007799,0.0003335,3.0,7.069,85.72,0.039,5.763,52.677,941.21,1109.777,0.05,0.05,1.22264,0.19558
6.65,622.3458216,24.9591576,-1.187,81.89,1.188,42.479,0.034,12.9475992,0.045,0.583,0.035,28.61,-80.6,0.998,0.452,-4.086e-07,0.006,2.018e-05,612.886,130.0,2.105,0.021,33.236,28.454,1.594,0.074,1838000.0,0.0,1.149,0.697,0.697,0.301,0.275,0.121,0.073,0.116,-0.0003931,0.0,0.0,0.0,0.0,0.001,0.0003259,3.0,7.069,85.616,0.036,6.348,52.662,941.07,1109.761,0.05,0.05,1.22264,0.19558
