Time (s),Altitude (m),Vertical velocity (m/s),Vertical acceleration (G),Total velocity (ft/s),Total acceleration (G),Position East of launch (ft),Position North of launch (ft),Lateral distance (m),Lateral direction (°),Lateral velocity (ft/s),Lateral acceleration (G),Latitude (°),Longitude (°),Gravitational acceleration (G),Angle of attack (°),Roll rate (r/s),Pitch rate (r/s),Yaw rate (r/s),Mass (g),Motor mass (g),Longitudinal moment of inertia (lb·ft²),Rotational moment of inertia (lb·ft²),CP location (in),CG location (in),Stability margin calibers,Mach number,Reynolds number ,Thrust (N),Drag force (N),Drag coefficient,Axial drag coefficient,Friction drag coefficient,Pressure drag coefficient,Base drag coefficient,Normal force coefficient,Pitch moment coefficient,Yaw moment coefficient,Side force coefficient,Roll moment coefficient,Roll forcing coefficient,Roll damping coefficient,Pitch damping coefficient,Coriolis acceleration (G),Reference length (in),Reference area (in²),Vertical orientation (zenith) (°),Lateral orientation (azimuth) (°),Wind velocity (ft/s),Air temperature (°F),Air pressure (mbar),Speed of sound (ft/s),Simulation time step (s),Computation time (s)
# Event IGNITION occurred at t=0 seconds
# Event LAUNCH occurred at t=0 seconds
0.01,-8.536e-4,-0.171,-0.531,0.171,0.531,0,0,0,0,0,0,28.61,-80.6,0.999,91.718,0,0,0,732.765,249.879,2.402,0.022,NaN,30.711,NaN,0.005,1.337e5,3.363,-4.784e-7,0.856,-5.695e-5,0.462,0.274,0.12,NaN,NaN,NaN,NaN,NaN,NaN,NaN,NaN,6.794e-7,3,7.069,90,0,5.693,60,1013.25,1117.866,0.01,9.858e-4
0.02,6.521e-4,0.13,0.406,0.13,0.406,0,0,0,0,0,0,28.61,-80.6,0.999,88.693,0,0,0,732.644,249.758,2.402,0.022,NaN,30.709,NaN,0.005,1.342e5,10.088,2.132e-7,0.855,2.517e-5,0.461,0.274,0.12,NaN,NaN,NaN,NaN,NaN,NaN,NaN,NaN,5.191e-7,3,7.069,90,0,5.718,60,1013.25,1117.866,0.01,0.001
0.03,0.004,0.562,1.342,0.562,1.342,0,0,0,0,0,0,28.61,-80.6,0.999,84.409,0,0,0,732.523,249.638,2.402,0.022,NaN,30.707,NaN,0.005,1.354e5,16.813,1.622e-5,0.854,0.002,0.46,0.274,0.12,NaN,NaN,NaN,NaN,NaN,NaN,NaN,NaN,2.237e-6,3,7.069,90,0,5.743,60,1013.25,1117.866,0.01,0.002
0.04,0.013,1.295,2.279,1.295,2.279,0,0,0,0,0,0,28.61,-80.6,0.999,77.343,0,0,0,732.403,249.517,2.402,0.022,NaN,30.705,NaN,0.005,1.387e5,23.538,1.817e-4,0.851,0.02,0.457,0.274,0.12,NaN,NaN,NaN,NaN,NaN,NaN,NaN,NaN,5.154e-6,3,7.069,90,0,5.768,60,1013.25,1117.866,0.01,0.002
0.05,0.032,2.33,3.216,2.33,3.216,0,0,0,0,0,0,28.61,-80.6,0.999,68.091,0,0,0,732.282,249.396,2.401,0.022,NaN,30.703,NaN,0.006,1.465e5,30.263,9.297e-4,0.845,0.092,0.451,0.274,0.12,NaN,NaN,NaN,NaN,NaN,NaN,NaN,NaN,9.271e-6,3,7.069,90,0,5.792,60,1013.249,1117.866,0.01,0.002
0.06,0.062,3.666,4.153,3.666,4.153,0,0,0,0,0,0,28.61,-80.6,0.999,58.003,0,0,0,732.161,249.275,2.401,0.022,NaN,30.701,NaN,0.006,1.624e5,36.989,0.003,0.834,0.245,0.44,0.274,0.12,NaN,NaN,NaN,NaN,NaN,NaN,NaN,NaN,1.459e-5,3,7.069,90,0,5.867,60,1013.248,1117.866,0.01,0.003
# Event LIFTOFF occurred at t=0.07 seconds
0.07,0.106,5.303,5.09,5.303,5.09,0,0,0,0,0,0,28.61,-80.6,0.999,48.248,0,0,0,732.04,249.155,2.401,0.022,NaN,30.699,NaN,0.007,1.869e5,43.714,0.007,0.82,0.455,0.426,0.274,0.12,NaN,NaN,NaN,NaN,NaN,NaN,NaN,NaN,2.11e-5,3,7.069,90,0,5.941,60,1013.246,1117.866,0.01,0.003
0.08,0.169,7.237,6.011,7.237,6.011,0,0,0,0,0,0,28.61,-80.6,0.999,39.736,0,0,0,731.81,248.924,2.4,0.022,NaN,30.696,NaN,0.008,2.209e5,50.319,0.015,0.803,0.659,0.409,0.274,0.12,NaN,NaN,NaN,NaN,NaN,NaN,NaN,NaN,2.88e-5,3,7.069,90,0,6.016,59.999,1013.244,1117.865,0.01,0.003
0.09,0.252,9.435,6.833,9.435,6.833,0,0,0,0,0,0,28.61,-80.6,0.999,32.842,0,0,0,731.47,248.585,2.4,0.022,NaN,30.69,NaN,0.01,2.636e5,56.204,0.026,0.787,0.811,0.393,0.274,0.12,NaN,NaN,NaN,NaN,NaN,NaN,NaN,NaN,3.755e-5,3,7.069,90,0,6.09,59.999,1013.241,1117.865,0.01,0.003
0.1,0.359,11.892,7.639,11.892,7.639,0,0,0,0,0,0,28.61,-80.6,0.999,27.401,0,0,0,731.131,248.245,2.399,0.022,NaN,30.685,NaN,0.012,3.144e5,61.97,0.042,0.771,0.903,0.377,0.274,0.12,NaN,NaN,NaN,NaN,NaN,NaN,NaN,NaN,4.732e-5,3,7.069,90,0,6.165,59.999,1013.237,1117.865,0.01,0.004
0.11,0.492,14.609,8.444,14.609,8.444,0,0,0,0,0,0,28.61,-80.6,0.999,22.961,0,0,0,730.791,247.906,2.398,0.022,NaN,30.68,NaN,0.014,3.724e5,67.735,0.062,0.757,0.95,0.363,0.274,0.12,NaN,NaN,NaN,NaN,NaN,NaN,NaN,NaN,5.814e-5,3,7.069,90,0,6.189,59.998,1013.232,1117.864,0.01,0.004
0.12,0.653,17.585,9.25,17.585,9.25,0,0,0,0,0,0,28.61,-80.6,0.999,19.462,0,0,0,730.452,247.566,2.398,0.022,NaN,30.674,NaN,0.017,4.377e5,73.501,0.087,0.745,0.962,0.351,0.274,0.12,NaN,NaN,NaN,NaN,NaN,NaN,NaN,NaN,6.998e-5,3,7.069,90,0,6.214,59.998,1013.227,1117.863,0.01,0.004
0.13,0.845,20.82,10.056,20.82,10.056,0,0,0,0,0,0,28.61,-80.6,0.999,16.681,0,0,0,730.112,247.226,2.397,0.022,NaN,30.669,NaN,0.019,5.101e5,79.266,0.117,0.734,0.953,0.34,0.274,0.12,NaN,NaN,NaN,NaN,NaN,NaN,NaN,NaN,8.285e-5,3,7.069,90,0,6.239,59.997,1013.22,1117.863,0.01,0.004
0.14,1.07,24.315,10.862,24.315,10.862,0,0,0,0,0,0,28.61,-80.6,0.999,14.445,0,0,0,729.772,246.887,2.396,0.022,NaN,30.664,NaN,0.022,5.893e5,85.032,0.151,0.723,0.927,0.329,0.274,0.12,NaN,NaN,NaN,NaN,NaN,NaN,NaN,NaN,9.676e-5,3,7.069,90,0,6.264,59.996,1013.212,1117.862,0.01,0.004
0.15,1.332,28.066,11.659,28.066,11.659,0,0,0,0,0,0,28.61,-80.6,0.999,12.629,0,0,0,729.358,246.472,2.395,0.022,NaN,30.657,NaN,0.026,6.75e5,90.724,0.191,0.714,0.893,0.32,0.274,0.12,NaN,NaN,NaN,NaN,NaN,NaN,NaN,NaN,1.117e-4,3,7.069,90,0,6.288,59.995,1013.202,1117.861,0.01,0.005
0.16,1.633,32.042,12.362,32.042,12.362,0,0,0,0,0,0,28.61,-80.6,0.999,11.163,0,0,0,728.831,245.945,2.394,0.022,NaN,30.649,NaN,0.029,7.665e5,95.732,0.238,0.706,0.86,0.312,0.274,0.12,NaN,NaN,NaN,NaN,NaN,NaN,NaN,NaN,1.275e-4,3,7.069,90,0,6.323,59.994,1013.192,1117.86,0.01,0.005
0.17,1.974,36.238,13.042,36.238,13.042,0,0,0,0,0,0,28.61,-80.6,0.999,9.951,0,0,0,728.304,245.418,2.393,0.022,NaN,30.64,NaN,0.033,8.635e5,100.573,0.291,0.699,0.83,0.305,0.274,0.12,NaN,NaN,NaN,NaN,NaN,NaN,NaN,NaN,1.442e-4,3,7.069,90,0,6.358,59.993,1013.18,1117.858,0.01,0.005
0.179,2.32,40.227,13.69,40.227,13.69,0,0,0,0,0,0,28.61,-80.6,0.999,9.025,0,0,0,727.827,244.941,2.392,0.022,NaN,30.633,NaN,0.036,9.559e5,105.186,0.348,0.696,0.81,0.302,0.274,0.12,NaN,NaN,NaN,NaN,NaN,NaN,NaN,NaN,1.601e-4,3,7.069,90,0,6.389,59.992,1013.167,1117.857,0.009,0.006
0.187,2.664,43.974,14.274,43.974,14.274,0,0,0,0,0,0,28.61,-80.6,0.999,8.304,0,0,0,727.397,244.512,2.391,0.022,NaN,30.626,NaN,0.04,1.043e6,109.352,0.407,0.696,0.797,0.302,0.274,0.12,NaN,NaN,NaN,NaN,NaN,NaN,NaN,NaN,1.75e-4,3,7.069,90,0,6.418,59.99,1013.155,1117.855,0.008,0.006
0.195,3.005,47.529,14.804,47.529,14.804,0,0,0,0,0,0,28.61,-80.6,0.999,7.721,0,0,0,727.004,244.119,2.39,0.022,NaN,30.619,NaN,0.043,1.126e6,113.132,0.468,0.696,0.786,0.302,0.274,0.12,NaN,NaN,NaN,NaN,NaN,NaN,NaN,NaN,1.891e-4,3,7.069,90,0,6.444,59.989,1013.143,1117.854,0.007,0.006
# Event LAUNCHROD occurred at t=0.202 seconds
0.202,3.345,50.926,15.291,50.926,15.291,0,0,0,0,0,0,28.61,-80.6,0.999,7.238,0,0,0,726.641,243.755,2.39,0.022,NaN,30.614,NaN,0.046,1.205e6,116.61,0.53,0.696,0.777,0.302,0.274,0.12,NaN,NaN,NaN,NaN,NaN,NaN,NaN,NaN,2.027e-4,3,7.069,90,0,6.468,59.988,1013.131,1117.853,0.007,0.006
0.212,3.899,56.208,15.876,56.208,15.876,-2.476e-4,0,2.476e-4,-180,0.048,0.151,28.61,-80.6,0.999,6.551,0,4.042e-4,2.168e-7,726.095,243.209,2.388,0.022,31.619,30.605,0.338,0.051,1.328e6,120.787,0.634,0.696,0.765,0.301,0.274,0.12,1.295,0.437,-1.682e-4,0,0,0,0,9.363e-6,2.237e-4,3,7.069,89.999,-0.034,6.505,59.986,1013.111,1117.851,0.01,0.006
0.227,4.837,64.564,16.748,64.564,16.749,-0.002,0,0.002,-180,0.128,0.167,28.61,-80.6,0.999,5.684,0,0.001,4.773e-7,725.201,242.315,2.387,0.022,31.81,30.59,0.407,0.058,1.523e6,127.027,0.819,0.696,0.751,0.301,0.274,0.12,1.095,0.445,-2.314e-4,0,0,0,0,6.253e-5,2.57e-4,3,7.069,89.995,-0.018,6.561,59.983,1013.077,1117.847,0.016,0.007
0.251,6.498,78.008,17.972,78.009,17.973,-0.006,-1.696e-8,0.006,-180,0.261,0.187,28.61,-80.6,0.999,4.653,0,0.003,7.398e-7,723.578,240.692,2.383,0.022,32.053,30.564,0.496,0.07,1.837e6,135.782,1.167,0.697,0.735,0.301,0.274,0.121,0.868,0.43,-2.098e-4,0,0,0,0,2.412e-4,3.106e-4,3,7.069,89.978,-0.009,6.642,59.977,1013.018,1117.84,0.023,0.007
0.286,9.61,100.175,19.758,100.176,19.759,-0.019,-1.102e-7,0.019,-180,0.481,0.2,28.61,-80.6,0.999,3.448,0,0.006,8.389e-7,721.143,238.258,2.378,0.022,32.359,30.525,0.611,0.09,2.357e6,148.666,1.879,0.697,0.719,0.301,0.275,0.121,0.619,0.377,-3.445e-4,0,0,0,0,7.406e-4,3.989e-4,3,7.069,89.922,-0.003,6.659,59.965,1012.907,1117.828,0.035,0.007
0.336,15.507,135.802,22.164,135.804,22.165,-0.051,-5.225e-7,0.051,-179.999,0.789,0.174,28.61,-80.6,0.999,2.358,7.216e-9,0.014,1.321e-7,717.133,234.247,2.369,0.022,32.661,30.459,0.734,0.122,3.192e6,166.289,3.4,0.699,0.71,0.301,0.276,0.122,0.409,0.298,-2.87e-4,0,0,0,0,0.002,5.408e-4,3,7.069,89.745,-0.002,6.997,59.944,1012.696,1117.804,0.05,0.007
0.386,23.289,175.423,24.544,175.425,24.544,-0.095,-1.183e-6,0.095,-179.999,0.949,0.002,28.61,-80.6,0.999,1.359,-1.705e-8,0.023,4.917e-6,712.783,229.897,2.36,0.021,32.961,30.387,0.858,0.157,4.118e6,184.15,5.617,0.701,0.704,0.301,0.277,0.123,0.228,0.193,-1.35e-4,0,0,0,0,0.003,6.981e-4,3,7.069,89.415,-0.003,6.911,59.916,1012.419,1117.774,0.05,0.007
0.436,33.137,218.43,26.596,218.431,26.598,-0.138,-3.713e-6,0.138,-179.998,0.652,0.371,28.61,-80.6,0.999,0.505,-1.025e-8,0.031,-2.891e-5,707.995,225.11,2.349,0.021,33.238,30.307,0.977,0.196,5.125e6,200.3,8.697,0.703,0.704,0.3,0.278,0.125,0.082,0.077,-2.071e-4,0,0,0,0,0.004,8.693e-4,3,7.069,88.922,0.003,6.668,59.881,1012.068,1117.734,0.05,0.008
0.486,45.205,264.193,28.246,264.193,28.259,-0.147,-2.232e-6,0.147,-179.999,0.393,0.887,28.61,-80.6,0.999,0.102,2.602e-8,-0.033,-1.012e-4,702.826,219.94,2.337,0.021,33.382,30.219,1.054,0.236,6.197e6,214.428,12.775,0.707,0.707,0.3,0.28,0.127,0.016,0.02,-4.884e-4,0,0,0,0,-0.003,0.001,3,7.069,88.333,0.012,6.76,59.838,1011.637,1117.687,0.05,0.01
0.536,59.609,311.813,29.325,311.822,29.361,-0.082,3.142e-5,0.082,179.978,2.345,1.449,28.61,-80.6,0.999,0.491,-1.643e-7,-0.026,4.375e-5,697.483,214.597,2.325,0.021,33.267,30.127,1.047,0.279,7.312e6,225.557,17.916,0.711,0.712,0.299,0.282,0.13,0.08,0.085,-4.303e-4,0,0,0,0,-0.001,0.001,3,7.069,87.795,0.03,6.881,59.786,1011.123,1117.629,0.05,0.01
0.576,73.005,351.184,29.994,351.213,30.048,0.055,1.219e-4,0.055,0.126,4.531,1.792,28.61,-80.6,0.999,0.601,1.475e-7,-0.011,-6.398e-5,692.946,210.06,2.315,0.021,33.244,30.048,1.065,0.314,8.233e6,233.803,22.863,0.716,0.717,0.299,0.284,0.133,0.099,0.105,4.601e-4,0,0,0,0,-1.883e-4,0.001,3,7.069,87.529,0.04,6.877,59.738,1010.645,1117.576,0.04,0.011
0.602,82.569,377.048,30.386,377.098,30.443,0.195,2.323e-4,0.195,0.068,6.109,1.862,28.61,-80.6,0.999,0.544,0,8.356e-4,1.808e-5,689.96,207.075,2.308,0.021,33.272,29.995,1.092,0.338,8.838e6,239.163,26.46,0.719,0.72,0.298,0.286,0.135,0.089,0.097,5.901e-5,0,0,0,0,9.002e-7,0.002,3,7.069,87.483,0.036,6.881,59.703,1010.304,1117.538,0.026,0.011
0.627,92.229,401.557,30.498,401.628,30.546,0.365,3.697e-4,0.365,0.058,7.556,1.717,28.61,-80.6,0.999,0.361,5.319e-8,0.011,-8.263e-5,687.053,204.167,2.301,0.021,33.341,29.943,1.133,0.36,9.411e6,242.641,30.128,0.722,0.722,0.298,0.288,0.137,0.059,0.066,1.593e-4,0,0,0,0,1.331e-4,0.002,3,7.069,87.538,0.029,7.191,59.669,1009.959,1117.5,0.025,0.011
0.659,105.574,433.177,30.459,433.274,30.489,0.633,5.756e-4,0.633,0.052,9.155,1.374,28.61,-80.6,0.999,0.1,3.412e-8,0.018,-2.466e-4,683.306,200.42,2.292,0.021,33.44,29.876,1.188,0.388,1.015e7,246.244,35.252,0.726,0.726,0.297,0.29,0.14,0.016,0.018,4.145e-4,0,0,0,0,3.109e-4,0.002,3,7.069,87.713,0.009,7.443,59.621,1009.483,1117.447,0.032,0.012
0.707,127.479,480.141,29.935,480.263,29.948,1.115,8.303e-4,1.115,0.043,10.835,0.874,28.61,-80.6,0.999,0.144,5.968e-8,-0.014,-9.687e-5,677.591,194.705,2.278,0.021,33.447,29.771,1.225,0.43,1.124e7,249.337,43.706,0.733,0.734,0.296,0.293,0.144,0.023,0.029,2.598e-4,0,0,0,0,-1.572e-4,0.002,3,7.069,88.018,-0.041,7.275,59.542,1008.701,1117.36,0.048,0.012
0.749,148.41,519.905,29.036,520.038,29.044,1.589,8.798e-4,1.589,0.032,11.749,0.67,28.61,-80.6,0.999,0.188,-1.021e-7,-6.49e-4,4.015e-6,672.587,189.702,2.266,0.021,33.452,29.678,1.258,0.466,1.217e7,249.813,51.67,0.74,0.74,0.295,0.297,0.148,0.031,0.039,-3.732e-4,0,0,0,0,-2.856e-7,0.002,3,7.069,88.128,-0.04,7.159,59.467,1007.955,1117.277,0.042,0.012
0.778,163.949,546.751,28.274,546.892,28.285,1.94,8.201e-4,1.94,0.024,12.399,0.803,28.61,-80.6,0.999,0.094,3.541e-8,0.009,-1.458e-5,669.112,186.226,2.257,0.021,33.498,29.613,1.295,0.49,1.279e7,249.621,57.475,0.745,0.745,0.294,0.299,0.151,0.015,0.02,-4.823e-4,0,0,0,0,4.551e-5,0.002,3,7.069,88.073,-0.027,6.875,59.411,1007.4,1117.215,0.029,0.012
0.822,188.694,585.49,26.959,585.654,26.981,2.511,6.74e-4,2.511,0.015,13.829,1.097,28.61,-80.6,0.999,0.043,2.375e-7,-0.006,-2.539e-4,663.905,181.02,2.244,0.021,33.539,29.514,1.342,0.524,1.369e7,248.664,66.505,0.752,0.752,0.293,0.303,0.156,0.007,0.009,-2.435e-4,0,0,0,0,-1.961e-5,0.002,3,7.069,87.92,0.012,6.682,59.322,1006.517,1117.117,0.044,0.013
0.872,219.015,626.952,25.069,627.149,25.091,3.252,6.463e-4,3.252,0.011,15.747,1.049,28.61,-80.6,0.999,0.042,-1.838e-7,0.001,-1.915e-4,658.054,175.169,2.229,0.021,33.572,29.401,1.39,0.562,1.465e7,245.403,77.044,0.761,0.761,0.292,0.307,0.161,0.007,0.01,4.826e-4,0,0,0,0,1.012e-6,0.002,3,7.069,87.88,-0.006,6.506,59.213,1005.435,1116.997,0.05,0.013
0.914,246.358,659.377,23.126,659.599,23.139,3.952,5.808e-4,3.952,0.008,17.103,0.773,28.61,-80.6,0.999,0.024,-4.587e-8,-0.007,-4.057e-4,653.165,170.279,2.217,0.021,33.608,29.305,1.435,0.591,1.54e7,240.545,85.94,0.768,0.768,0.291,0.311,0.165,0.004,0.006,2.032e-4,0,0,0,0,-1.917e-5,0.003,3,7.069,87.991,-0.042,6.309,59.115,1004.46,1116.888,0.043,0.013
0.964,280.196,693.727,20.636,693.961,20.651,4.83,3.177e-4,4.83,0.004,18.029,0.779,28.61,-80.6,0.999,0.004,-5.63e-7,-0.004,-3.77e-4,647.546,164.66,2.202,0.021,33.651,29.192,1.486,0.622,1.619e7,233.464,95.99,0.775,0.775,0.29,0.315,0.17,5.998e-4,7.028e-4,4.719e-4,0,0,0,0,-7.21e-6,0.003,3,7.069,88.031,0.03,6.66,58.993,1003.252,1116.754,0.05,0.013
1.004,308.488,717.906,18.245,718.151,18.26,5.566,2.325e-4,5.566,0.002,18.783,0.742,28.61,-80.6,0.998,0.013,-1.965e-7,-0.006,-3.358e-4,643.306,160.42,2.19,0.021,33.677,29.106,1.523,0.643,1.674e7,224.983,103.494,0.781,0.781,0.289,0.318,0.174,0.002,0.004,-4.912e-4,0,0,0,0,-1.166e-5,0.003,3,7.069,87.93,0.005,7.054,58.891,1002.243,1116.641,0.04,0.013
1.054,345.037,743.664,15.401,743.933,15.407,6.538,2.103e-4,6.538,0.002,20.026,0.424,28.61,-80.6,0.998,0.042,2.905e-7,-0.005,-3.266e-4,638.113,155.227,2.176,0.021,33.699,28.999,1.567,0.666,1.733e7,214.472,111.817,0.787,0.787,0.288,0.321,0.178,0.007,0.011,3.29e-4,0,0,0,0,-7.012e-6,0.003,3,7.069,87.882,-0.026,6.974,58.76,1000.939,1116.496,0.05,0.014
1.104,382.736,764.05,12.178,764.335,12.185,7.561,4.964e-5,7.561,3.761e-4,20.841,0.427,28.61,-80.6,0.998,0.011,-4.555e-7,0.004,0.001,633.347,150.461,2.163,0.021,33.736,28.9,1.612,0.685,1.779e7,200.579,118.697,0.793,0.793,0.287,0.324,0.181,0.002,0.003,1.965e-4,0,0,0,0,5.086e-6,0.003,3,7.069,87.929,-0.017,6.914,58.625,999.593,1116.347,0.05,0.014
1.154,421.315,778.916,8.864,779.211,8.871,8.618,-1.541e-4,8.618,-0.001,21.419,0.36,28.61,-80.6,0.998,0.004,-5.693e-7,0.002,0.003,628.976,146.09,2.151,0.021,33.759,28.807,1.651,0.698,1.812e7,184.693,123.821,0.796,0.796,0.287,0.326,0.183,7.33e-4,0.001,4.679e-4,0,0,0,0,1.373e-6,0.003,3,7.069,87.957,0.049,6.389,58.486,998.217,1116.194,0.05,0.014
1.204,460.494,788.118,5.483,788.419,5.489,9.698,-7.702e-6,9.698,-4.55e-5,21.786,0.246,28.61,-80.6,0.998,0.005,-2.189e-7,0.001,-8.421e-4,624.92,142.034,2.14,0.021,33.772,28.719,1.684,0.707,1.831e7,166.759,127.006,0.799,0.799,0.287,0.328,0.185,8.396e-4,0.001,1.452e-4,0,0,0,0,6.232e-7,0.003,3,7.069,87.98,-0.054,6.049,58.345,996.819,1116.038,0.05,0.014
1.254,499.983,791.399,1.962,791.703,1.965,10.791,-3.022e-4,10.791,-0.002,21.939,0.122,28.61,-80.6,0.998,0.008,-4.629e-7,8.434e-4,7.439e-5,621.454,138.568,2.13,0.021,33.776,28.644,1.711,0.71,1.837e7,146.115,128.06,0.8,0.8,0.286,0.328,0.185,0.001,0.002,-2.984e-4,0,0,0,0,2.082e-7,0.003,3,7.069,87.995,-0.019,5.783,58.203,995.409,1115.881,0.05,0.015
1.304,539.486,788.743,-1.563,789.046,1.563,11.886,-6.602e-4,11.886,-0.003,21.872,0.034,28.61,-80.6,0.998,0.006,-2.463e-7,-6.13e-4,-7.854e-4,618.585,135.7,2.121,0.021,33.773,28.581,1.731,0.707,1.829e7,123.519,126.946,0.799,0.799,0.286,0.328,0.185,9.172e-4,0.001,-1.837e-6,0,0,0,0,-1.107e-7,0.003,3,7.069,88.001,0.02,5.701,58.061,994,1115.724,0.05,0.015
1.354,578.707,780.229,-5.041,780.528,5.043,12.972,-6.28e-4,12.972,-0.003,21.602,0.106,28.61,-80.6,0.998,0.01,-4.417e-7,-0.001,3.491e-4,616.086,133.2,2.114,0.021,33.759,28.525,1.745,0.7,1.808e7,99.301,123.734,0.797,0.797,0.287,0.326,0.184,0.002,0.002,3.57e-4,0,0,0,0,-4.821e-7,0.003,3,7.069,87.985,0.047,5.845,57.92,992.6,1115.569,0.05,0.015
1.404,617.353,765.832,-8.534,766.125,8.539,14.042,-4.166e-4,14.042,-0.002,21.177,0.302,28.61,-80.6,0.998,0.009,-3.107e-7,-0.001,-3.814e-4,614.423,131.537,2.109,0.021,33.74,28.488,1.751,0.687,1.773e7,73.078,118.517,0.793,0.793,0.287,0.324,0.181,0.001,0.003,1.079e-4,0,0,0,0,-5.669e-7,0.003,3,7.069,87.985,-0.017,5.716,57.781,991.221,1115.415,0.05,0.015
1.454,655.128,745.504,-12.067,745.787,12.074,15.085,-4.054e-4,15.085,-0.002,20.536,0.418,28.61,-80.6,0.998,0.008,-3.419e-7,-0.001,8.247e-5,613.417,130.531,2.106,0.021,33.714,28.466,1.749,0.669,1.724e7,44.822,111.453,0.788,0.788,0.288,0.322,0.178,0.001,0.003,1.743e-4,0,0,0,0,-5.759e-7,0.003,3,7.069,88.007,0.036,5.426,57.646,989.873,1115.265,0.05,0.015
# Event BURNOUT occurred at t=1.5 seconds
1.5,688.586,721.4,-15.779,721.669,15.787,16.002,-1.9e-4,16.002,-6.803e-4,19.698,0.491,28.61,-80.6,0.998,0.009,-1.329e-7,-0.001,-5.915e-4,612.886,130,2.105,0.021,33.683,28.454,1.743,0.647,1.667e7,14.592,103.478,0.782,0.782,0.289,0.319,0.174,0.001,0.003,-4.846e-4,0,0,0,0,-4.954e-7,0.003,3,7.069,88.006,0.008,5.544,57.525,988.679,1115.133,0.046,0.016
1.55,723.944,693.318,-16.739,693.573,16.748,16.964,1.446e-5,16.964,4.882e-5,18.8,0.566,28.61,-80.6,0.998,0.006,-3.78e-7,-0.002,0.001,612.886,130,2.105,0.021,33.651,28.454,1.732,0.622,1.601e7,0,94.664,0.775,0.775,0.29,0.315,0.17,0.001,0.002,4.91e-4,0,0,0,0,-1.683e-6,0.003,3,7.069,88.001,0.025,5.274,57.398,987.418,1114.992,0.05,0.016
1.6,757.954,667.442,-15.462,667.681,15.47,17.881,2.958e-4,17.881,9.48e-4,17.865,0.507,28.61,-80.6,0.998,0.004,-1.621e-7,-0.005,-0.004,612.886,130,2.105,0.021,33.624,28.454,1.723,0.599,1.54e7,0,86.983,0.77,0.77,0.291,0.312,0.167,7.238e-4,8.369e-4,4.647e-4,0,0,0,0,-1.168e-5,0.003,3,7.069,87.98,0.058,5.931,57.276,986.204,1114.857,0.05,0.016
1.65,790.72,643.49,-14.338,643.716,14.346,18.754,8.302e-4,18.754,0.003,17.089,0.472,28.61,-80.6,0.998,0.004,-2.954e-7,0.001,-0.001,612.886,130,2.105,0.021,33.601,28.454,1.716,0.578,1.484e7,0,80.226,0.764,0.764,0.292,0.309,0.163,6.883e-4,9.713e-4,2.125e-4,0,0,0,0,4.58e-7,0.003,3,7.069,87.928,-0.019,5.975,57.158,985.035,1114.727,0.05,0.016
1.7,822.332,621.237,-13.343,621.454,13.351,19.591,0.001,19.591,0.003,16.398,0.47,28.61,-80.6,0.998,0.009,-4.026e-7,1.042e-4,-9.188e-6,612.886,130,2.105,0.021,33.579,28.454,1.708,0.558,1.431e7,0,74.246,0.76,0.76,0.292,0.307,0.16,0.001,0.003,-4.688e-5,0,0,0,0,5.157e-9,0.002,3,7.069,87.928,-0.052,6.032,57.045,983.907,1114.602,0.05,0.016
1.75,852.869,600.499,-12.459,600.702,12.466,20.392,0.001,20.392,0.003,15.622,0.435,28.61,-80.6,0.998,0.005,-4.864e-7,0.003,-0.002,612.886,130,2.105,0.021,33.564,28.454,1.703,0.539,1.383e7,0,68.929,0.755,0.755,0.293,0.305,0.158,8.367e-4,0.002,6.637e-5,0,0,0,0,5.603e-6,0.002,3,7.069,87.914,0.047,6.548,56.935,982.817,1114.48,0.05,0.017
1.8,882.404,581.105,-11.668,581.297,11.675,21.155,0.001,21.155,0.003,14.918,0.384,28.61,-80.6,0.998,0.009,-8.587e-7,-0.003,2.108e-4,612.886,130,2.105,0.021,33.548,28.454,1.698,0.522,1.337e7,0,64.17,0.752,0.752,0.293,0.303,0.155,0.002,0.003,-1.841e-4,0,0,0,0,-4.132e-6,0.002,3,7.069,87.842,0.086,6.923,56.829,981.764,1114.363,0.05,0.017
1.85,911,562.915,-10.956,563.098,10.962,21.887,0.002,21.887,0.004,14.374,0.359,28.61,-80.6,0.998,0.01,-5.681e-7,4.966e-4,1.753e-4,612.886,130,2.105,0.021,33.536,28.454,1.694,0.506,1.294e7,0,59.889,0.748,0.748,0.294,0.301,0.153,0.002,0.003,-3.573e-4,0,0,0,0,1.426e-7,0.002,3,7.069,87.799,0.046,6.952,56.726,980.743,1114.25,0.05,0.017
1.9,938.714,545.815,-10.312,545.989,10.319,22.591,0.002,22.591,0.006,13.795,0.381,28.61,-80.6,0.998,0.011,-5.213e-7,0.001,2.672e-4,612.886,130,2.105,0.021,33.526,28.454,1.691,0.49,1.254e7,0,56.025,0.745,0.745,0.294,0.299,0.151,0.002,0.003,-1.536e-4,0,0,0,0,7.234e-7,0.002,3,7.069,87.81,0.012,7.228,56.626,979.754,1114.14,0.05,0.017
1.95,965.597,529.701,-9.73,529.866,9.736,23.266,0.003,23.266,0.007,13.219,0.329,28.61,-80.6,0.998,0.004,-4.5e-7,1.45e-4,-9.756e-5,612.886,130,2.105,0.021,33.52,28.454,1.689,0.476,1.216e7,0,52.519,0.742,0.742,0.295,0.298,0.149,7.158e-4,0.001,-2.806e-4,0,0,0,0,1.373e-8,0.002,3,7.069,87.807,0.016,7.023,56.53,978.795,1114.033,0.05,0.017
2,991.698,514.48,-9.2,514.637,9.205,23.915,0.003,23.915,0.008,12.731,0.299,28.61,-80.6,0.998,0.009,-4.567e-7,0.001,1.851e-4,612.886,130,2.105,0.021,33.51,28.454,1.685,0.462,1.181e7,0,49.328,0.739,0.739,0.295,0.297,0.148,0.001,0.002,4.517e-4,0,0,0,0,1.124e-6,0.002,3,7.069,87.812,0.066,6.791,56.436,977.864,1113.929,0.05,0.018
2.05,1017.059,500.075,-8.715,500.225,8.721,24.539,0.004,24.539,0.009,12.246,0.305,28.61,-80.6,0.998,0.007,-4.23e-7,-8.094e-4,1.572e-4,612.886,130,2.105,0.021,33.503,28.454,1.683,0.449,1.147e7,0,46.417,0.737,0.737,0.295,0.295,0.146,0.001,0.002,3.722e-4,0,0,0,0,-4.8e-7,0.002,3,7.069,87.838,0.076,6.723,56.345,976.959,1113.829,0.05,0.018
2.1,1041.718,486.416,-8.272,486.559,8.277,25.139,0.005,25.139,0.01,11.762,0.281,28.61,-80.6,0.998,0.004,-4.127e-7,-1.456e-4,-4.815e-5,612.886,130,2.105,0.021,33.498,28.454,1.681,0.437,1.115e7,0,43.75,0.735,0.735,0.296,0.294,0.145,5.908e-4,8.846e-4,3.426e-4,0,0,0,0,-1.643e-8,0.002,3,7.069,87.849,0.037,6.572,56.256,976.079,1113.731,0.05,0.018
2.15,1065.712,473.44,-7.866,473.576,7.869,25.717,0.005,25.717,0.012,11.363,0.233,28.61,-80.6,0.998,0.016,-4.377e-7,0.002,-4.173e-4,612.886,130,2.105,0.021,33.487,28.454,1.678,0.425,1.085e7,0,41.298,0.733,0.733,0.296,0.293,0.144,0.003,0.005,3.706e-4,0,0,0,0,3.413e-6,0.002,3,7.069,87.86,-0.002,6.116,56.17,975.223,1113.636,0.05,0.018
2.2,1089.073,461.093,-7.489,461.223,7.494,26.276,0.006,26.276,0.013,10.971,0.257,28.61,-80.6,0.998,0.011,-4.887e-7,-0.001,-4.476e-5,612.886,130,2.105,0.021,33.483,28.454,1.676,0.414,1.056e7,0,39.043,0.731,0.731,0.296,0.292,0.142,0.002,0.003,-2.405e-4,0,0,0,0,-1.076e-6,0.002,3,7.069,87.898,-0.013,6.075,56.086,974.389,1113.543,0.05,0.019
2.25,1111.831,449.328,-7.142,449.451,7.148,26.813,0.006,26.813,0.013,10.51,0.277,28.61,-80.6,0.998,0.036,-4.507e-7,0.002,-1.495e-4,612.886,130,2.105,0.021,33.47,28.454,1.672,0.404,1.028e7,0,36.963,0.729,0.729,0.297,0.291,0.141,0.006,0.01,3.586e-4,0,0,0,0,2.681e-6,0.002,3,7.069,87.902,0.023,6.348,56.004,973.577,1113.452,0.05,0.019
2.3,1134.015,438.099,-6.823,438.215,6.827,27.327,0.006,27.327,0.014,10.088,0.227,28.61,-80.6,0.998,0.005,-5.38e-7,0.003,-0.001,612.886,130,2.105,0.021,33.475,28.454,1.674,0.394,1.002e7,0,35.036,0.727,0.727,0.297,0.29,0.14,7.381e-4,0.001,-2.666e-4,0,0,0,0,1.017e-5,0.002,3,7.069,87.84,0.085,6.47,55.924,972.786,1113.364,0.05,0.019
2.35,1155.649,427.362,-6.528,427.474,6.53,27.824,0.007,27.824,0.014,9.778,0.18,28.61,-80.6,0.998,0.029,-4.15e-7,-0.002,-3.071e-4,612.886,130,2.105,0.021,33.462,28.454,1.669,0.384,9.769e6,0,33.249,0.726,0.726,0.297,0.289,0.139,0.005,0.008,3.2e-4,0,0,0,0,-4.683e-6,0.002,3,7.069,87.772,0.088,6.561,55.847,972.014,1113.279,0.05,0.019
2.4,1176.758,417.085,-6.252,417.194,6.254,28.306,0.008,28.306,0.016,9.531,0.161,28.61,-80.6,0.998,0.038,-4.447e-7,0.001,-5.289e-5,612.886,130,2.105,0.021,33.455,28.454,1.667,0.375,9.529e6,0,31.586,0.724,0.724,0.297,0.289,0.138,0.006,0.01,-1.188e-4,0,0,0,0,1.523e-6,0.002,3,7.069,87.763,0.043,6.415,55.771,971.26,1113.195,0.05,0.02
2.45,1197.365,407.24,-5.991,407.344,5.996,28.775,0.008,28.775,0.017,9.198,0.239,28.61,-80.6,0.998,0.04,-4.564e-7,-3.977e-4,-9.259e-5,612.886,130,2.105,0.021,33.45,28.454,1.665,0.366,9.3e6,0,30.041,0.723,0.723,0.298,0.288,0.137,0.006,0.011,-1.701e-4,0,0,0,0,-1.747e-7,0.002,3,7.069,87.797,0.011,6.853,55.697,970.525,1113.113,0.05,0.02
2.5,1217.489,397.798,-5.751,397.895,5.756,29.224,0.009,29.224,0.017,8.783,0.24,28.61,-80.6,0.998,0.05,-4.986e-7,0.003,-7.94e-5,612.886,130,2.105,0.021,33.443,28.454,1.663,0.358,9.08e6,0,28.599,0.722,0.722,0.298,0.287,0.137,0.008,0.014,2.374e-4,0,0,0,0,1.206e-5,0.002,3,7.069,87.773,0.009,7.099,55.624,969.807,1113.033,0.05,0.02
2.55,1237.151,388.727,-5.529,388.819,5.532,29.655,0.009,29.655,0.018,8.459,0.163,28.61,-80.6,0.998,0.021,-4.586e-7,-0.004,1.177e-4,612.886,130,2.105,0.021,33.449,28.454,1.665,0.35,8.869e6,0,27.248,0.721,0.721,0.298,0.287,0.136,0.003,0.005,-4.09e-4,0,0,0,0,-1.867e-5,0.002,3,7.069,87.689,0.041,7.041,55.554,969.106,1112.955,0.05,0.021
2.6,1256.368,380.001,-5.321,380.09,5.322,30.073,0.01,30.073,0.019,8.259,0.116,28.61,-80.6,0.998,0.065,-3.674e-7,-9.127e-4,-8.869e-5,612.886,130,2.105,0.021,33.431,28.454,1.659,0.342,8.666e6,0,25.984,0.719,0.719,0.298,0.286,0.135,0.011,0.018,-3.8e-4,0,0,0,0,-1.057e-6,0.002,3,7.069,87.635,0.068,6.923,55.485,968.42,1112.879,0.05,0.021
2.65,1275.156,371.602,-5.123,371.689,5.124,30.481,0.01,30.481,0.019,8.079,0.129,28.61,-80.6,0.998,0.044,-3.58e-7,0.003,5.588e-5,612.886,130,2.105,0.021,33.435,28.454,1.66,0.334,8.47e6,0,24.798,0.718,0.718,0.298,0.286,0.135,0.007,0.012,-2.458e-4,0,0,0,0,1.17e-5,0.001,3,7.069,87.663,0.06,6.78,55.417,967.749,1112.804,0.05,0.021
2.7,1293.533,363.514,-4.935,363.598,4.938,30.879,0.011,30.879,0.02,7.824,0.182,28.61,-80.6,0.998,0.028,-3.975e-7,-0.003,7.182e-6,612.886,130,2.105,0.021,33.438,28.454,1.661,0.327,8.282e6,0,23.685,0.717,0.717,0.298,0.285,0.134,0.004,0.007,3.208e-5,0,0,0,0,-1.603e-5,0.001,3,7.069,87.737,0.018,6.768,55.351,967.094,1112.731,0.05,0.022
2.75,1311.513,355.718,-4.76,355.797,4.765,31.262,0.011,31.262,0.021,7.481,0.217,28.61,-80.6,0.998,0.081,-4.143e-7,2.626e-4,-7.93e-5,612.886,130,2.105,0.021,33.417,28.454,1.654,0.32,8.101e6,0,22.639,0.716,0.717,0.298,0.285,0.133,0.013,0.021,-4.742e-4,0,0,0,0,9.986e-8,0.001,3,7.069,87.773,-0.013,6.926,55.287,966.452,1112.66,0.05,0.022
2.8,1329.109,348.194,-4.597,348.267,4.6,31.628,0.012,31.628,0.021,7.154,0.176,28.61,-80.6,0.998,0.039,-3.765e-7,0.004,2.862e-5,612.886,130,2.105,0.021,33.428,28.454,1.658,0.313,7.926e6,0,21.653,0.716,0.716,0.299,0.284,0.133,0.006,0.011,-4.018e-4,0,0,0,0,1.992e-5,0.001,3,7.069,87.728,-1.004e-4,6.904,55.223,965.824,1112.59,0.05,0.022
2.85,1346.336,340.922,-4.445,340.992,4.446,31.979,0.012,31.979,0.022,6.931,0.111,28.61,-80.6,0.998,0.04,-4.525e-7,-0.004,1.141e-4,612.886,130,2.105,0.021,33.426,28.454,1.657,0.307,7.758e6,0,20.723,0.715,0.715,0.299,0.284,0.132,0.006,0.01,-4.411e-4,0,0,0,0,-1.994e-5,0.001,3,7.069,87.649,0.021,6.776,55.161,965.21,1112.522,0.05,0.022
2.9,1363.205,333.888,-4.3,333.957,4.301,32.322,0.012,32.322,0.022,6.791,0.082,28.61,-80.6,0.998,0.076,-4.085e-7,-3.641e-4,3.194e-5,612.886,130,2.105,0.021,33.411,28.454,1.652,0.3,7.594e6,0,19.845,0.714,0.714,0.299,0.283,0.132,0.012,0.02,-4.638e-4,0,0,0,0,-2.179e-7,0.001,3,7.069,87.61,0.045,6.657,55.101,964.608,1112.455,0.05,0.023
2.95,1379.729,327.084,-4.16,327.152,4.162,32.658,0.013,32.658,0.022,6.639,0.114,28.61,-80.6,0.998,0.025,-4.093e-7,0.002,-9.889e-6,612.886,130,2.105,0.021,33.426,28.454,1.657,0.294,7.437e6,0,19.016,0.713,0.713,0.299,0.283,0.131,0.004,0.007,-3.7e-4,0,0,0,0,8.872e-6,0.001,3,7.069,87.636,0.045,6.729,55.041,964.018,1112.389,0.05,0.023
3,1395.917,320.498,-4.029,320.563,4.031,32.985,0.013,32.985,0.023,6.454,0.116,28.61,-80.6,0.998,0.01,-4.663e-7,0.003,-6.775e-5,612.886,130,2.105,0.021,33.429,28.454,1.658,0.288,7.284e6,0,18.23,0.713,0.713,0.299,0.283,0.131,0.002,0.003,-3.36e-4,0,0,0,0,1.998e-5,0.001,3,7.069,87.691,0.026,6.417,54.983,963.44,1112.325,0.05,0.023
3.05,1411.782,314.118,-3.904,314.179,3.907,33.303,0.013,33.303,0.023,6.232,0.151,28.61,-80.6,0.998,0.054,-4.003e-7,-0.002,-8.502e-5,612.886,130,2.105,0.021,33.412,28.454,1.653,0.283,7.136e6,0,17.487,0.712,0.712,0.299,0.282,0.13,0.009,0.014,1.012e-4,0,0,0,0,-7.884e-6,0.001,3,7.069,87.745,0.019,6.465,54.926,962.874,1112.262,0.05,0.023
3.1,1427.332,307.933,-3.786,307.991,3.79,33.608,0.014,33.608,0.023,5.966,0.166,28.61,-80.6,0.998,0.087,-4.283e-7,0.001,-5.297e-5,612.886,130,2.105,0.021,33.399,28.454,1.649,0.277,6.993e6,0,16.783,0.711,0.711,0.299,0.282,0.13,0.014,0.023,-5.826e-5,0,0,0,0,2.907e-6,0.001,3,7.069,87.754,0.024,6.605,54.87,962.319,1112.2,0.05,0.024
3.15,1442.578,301.93,-3.677,301.985,3.679,33.9,0.014,33.9,0.024,5.739,0.116,28.61,-80.6,0.998,0.012,-3.952e-7,0.003,-9.241e-5,612.886,130,2.105,0.021,33.423,28.454,1.656,0.272,6.854e6,0,16.113,0.711,0.711,0.299,0.282,0.13,0.002,0.003,-3.329e-4,0,0,0,0,1.929e-5,0.001,3,7.069,87.706,0.029,6.399,54.816,961.775,1112.14,0.05,0.024
3.2,1457.528,296.1,-3.573,296.153,3.573,34.183,0.014,34.183,0.024,5.596,0.071,28.61,-80.6,0.998,0.061,-4.166e-7,-0.002,1.988e-5,612.886,130,2.105,0.021,33.405,28.454,1.65,0.266,6.719e6,0,15.477,0.71,0.71,0.299,0.281,0.129,0.01,0.016,-4.511e-4,0,0,0,0,-8.791e-6,0.001,3,7.069,87.651,0.03,6.203,54.762,961.242,1112.08,0.05,0.024
3.25,1472.191,290.434,-3.471,290.486,3.473,34.46,0.015,34.46,0.024,5.469,0.092,28.61,-80.6,0.998,0.021,-4.019e-7,-5.087e-4,-2.68e-5,612.886,130,2.105,0.021,33.416,28.454,1.654,0.261,6.589e6,0,14.873,0.71,0.71,0.3,0.281,0.129,0.003,0.005,-1.127e-4,0,0,0,0,-5.621e-7,0.001,3,7.069,87.631,0.029,6.449,54.709,960.719,1112.022,0.05,0.024
3.3,1486.574,284.928,-3.375,284.977,3.377,34.729,0.015,34.729,0.025,5.308,0.106,28.61,-80.6,0.998,0.011,-4.027e-7,3.676e-4,-1.467e-5,612.886,130,2.105,0.021,33.418,28.454,1.655,0.256,6.462e6,0,14.299,0.709,0.709,0.3,0.281,0.129,0.002,0.003,-3.478e-6,0,0,0,0,3.05e-7,0.001,3,7.069,87.626,0.033,6.573,54.657,960.206,1111.965,0.05,0.025
3.35,1500.686,279.573,-3.283,279.62,3.286,34.99,0.015,34.99,0.025,5.122,0.12,28.61,-80.6,0.998,0.045,-4.016e-7,0.001,-1.945e-5,612.886,130,2.105,0.021,33.405,28.454,1.65,0.252,6.338e6,0,13.752,0.708,0.708,0.3,0.281,0.128,0.007,0.012,3.392e-6,0,0,0,0,4.816e-6,0.001,3,7.069,87.612,0.041,6.778,54.607,959.702,1111.909,0.05,0.025
3.4,1514.534,274.36,-3.198,274.405,3.199,35.242,0.015,35.242,0.025,4.974,0.068,28.61,-80.6,0.998,0.053,-3.999e-7,-0.001,-4.534e-6,612.886,130,2.105,0.021,33.401,28.454,1.649,0.247,6.217e6,0,13.228,0.708,0.708,0.3,0.28,0.128,0.008,0.014,-2.251e-4,0,0,0,0,-3.461e-6,0.001,3,7.069,87.581,0.049,6.331,54.557,959.208,1111.854,0.05,0.025
3.45,1528.125,269.282,-3.114,269.326,3.116,35.488,0.016,35.488,0.026,4.842,0.097,28.61,-80.6,0.998,0.012,-4.062e-7,6.895e-4,-9.765e-5,612.886,130,2.105,0.021,33.414,28.454,1.653,0.242,6.101e6,0,12.731,0.708,0.708,0.3,0.28,0.128,0.002,0.003,-4.579e-4,0,0,0,0,1.201e-6,0.001,3,7.069,87.568,0.059,6.666,54.508,958.723,1111.8,0.05,0.025
3.5,1541.465,264.336,-3.036,264.378,3.037,35.726,0.016,35.726,0.026,4.696,0.084,28.61,-80.6,0.998,0.008,-4.104e-7,-6.014e-4,-1.912e-5,612.886,130,2.105,0.021,33.414,28.454,1.653,0.238,5.987e6,0,12.255,0.707,0.707,0.3,0.28,0.127,0.001,0.002,3.61e-5,0,0,0,0,-9.482e-7,0.001,3,7.069,87.556,0.058,6.539,54.46,958.247,1111.747,0.05,0.025
3.55,1554.56,259.514,-2.96,259.554,2.961,35.958,0.017,35.958,0.026,4.575,0.07,28.61,-80.6,0.998,0.034,-4.083e-7,1.487e-4,-5.884e-5,612.886,130,2.105,0.021,33.404,28.454,1.65,0.234,5.875e6,0,11.8,0.707,0.707,0.3,0.28,0.127,0.005,0.009,2.026e-4,0,0,0,0,6.013e-8,0.001,3,7.069,87.55,0.045,6.366,54.413,957.78,1111.695,0.05,0.026
3.6,1567.418,254.811,-2.887,254.849,2.889,36.183,0.017,36.183,0.027,4.429,0.108,28.61,-80.6,0.998,0.062,-4.01e-7,4.888e-4,8.141e-5,612.886,130,2.105,0.021,33.393,28.454,1.646,0.229,5.768e6,0,11.367,0.706,0.706,0.3,0.279,0.127,0.01,0.017,-1.882e-4,0,0,0,0,6.741e-7,0.001,3,7.069,87.552,0.026,6.763,54.367,957.321,1111.644,0.05,0.026
3.65,1580.043,250.222,-2.819,250.258,2.82,36.401,0.017,36.401,0.027,4.296,0.059,28.61,-80.6,0.998,0.05,-4.02e-7,-3.776e-4,1.301e-5,612.886,130,2.105,0.021,33.396,28.454,1.647,0.225,5.661e6,0,10.949,0.706,0.706,0.3,0.279,0.127,0.008,0.013,-4.706e-4,0,0,0,0,-4.172e-7,9.959e-4,3,7.069,87.538,0.012,6.218,54.322,956.87,1111.594,0.05,0.026
3.7,1592.442,245.739,-2.753,245.776,2.754,36.614,0.018,36.614,0.028,4.211,0.051,28.61,-80.6,0.998,0.062,-3.975e-7,0.001,2.937e-5,612.886,130,2.105,0.021,33.391,28.454,1.646,0.221,5.558e6,0,10.551,0.706,0.706,0.3,0.279,0.126,0.01,0.016,2.662e-4,0,0,0,0,3.406e-6,9.781e-4,3,7.069,87.544,0.011,6.055,54.277,956.428,1111.545,0.05,0.027
3.75,1604.619,241.362,-2.689,241.397,2.69,36.822,0.018,36.822,0.028,4.125,0.057,28.61,-80.6,0.998,0.041,-4.367e-7,0.003,-3.088e-5,612.886,130,2.105,0.021,33.397,28.454,1.648,0.217,5.458e6,0,10.169,0.705,0.705,0.3,0.279,0.126,0.007,0.01,-1.293e-4,0,0,0,0,1.968e-5,9.607e-4,3,7.069,87.579,0.016,5.91,54.233,955.993,1111.496,0.05,0.027
3.8,1616.58,237.086,-2.628,237.119,2.629,37.026,0.018,37.026,0.028,4.012,0.082,28.61,-80.6,0.998,0.035,-4.223e-7,-0.003,-1.058e-5,612.886,130,2.105,0.021,33.398,28.454,1.648,0.214,5.359e6,0,9.804,0.705,0.705,0.3,0.279,0.126,0.006,0.009,4.842e-4,0,0,0,0,-2.14e-5,9.436e-4,3,7.069,87.628,0.027,5.967,54.19,955.567,1111.449,0.05,0.028
3.85,1628.329,232.907,-2.568,232.938,2.571,37.223,0.019,37.223,0.029,3.857,0.107,28.61,-80.6,0.998,0.116,-4.031e-7,-5.344e-4,-2.199e-5,612.886,130,2.105,0.021,33.37,28.454,1.639,0.21,5.264e6,0,9.455,0.705,0.705,0.3,0.279,0.126,0.019,0.03,1.212e-4,0,0,0,0,-9.642e-7,9.27e-4,3,7.069,87.659,0.038,6.152,54.148,955.147,1111.402,0.05,0.029
3.9,1639.872,228.82,-2.512,228.85,2.515,37.411,0.019,37.411,0.029,3.676,0.113,28.61,-80.6,0.998,0.142,-4.172e-7,0.003,2.035e-7,612.886,130,2.105,0.021,33.36,28.454,1.635,0.206,5.17e6,0,9.12,0.704,0.704,0.3,0.278,0.126,0.023,0.037,2.947e-4,0,0,0,0,2.433e-5,9.107e-4,3,7.069,87.64,0.046,6.332,54.107,954.736,1111.356,0.05,0.029
3.95,1651.213,224.821,-2.46,224.849,2.461,37.591,0.019,37.591,0.029,3.525,0.074,28.61,-80.6,0.998,0.035,-4.082e-7,0.005,-6.338e-5,612.886,130,2.105,0.021,33.395,28.454,1.647,0.202,5.078e6,0,8.796,0.704,0.704,0.3,0.278,0.125,0.006,0.009,-2.493e-4,0,0,0,0,7.873e-5,8.948e-4,3,7.069,87.569,0.046,6.141,54.066,954.349,1111.311,0.05,0.029
4,1662.355,220.904,-2.41,220.931,2.41,37.765,0.019,37.765,0.029,3.432,0.045,28.61,-80.6,0.998,0.057,-4.11e-7,-0.004,-4.364e-5,612.886,130,2.105,0.021,33.387,28.454,1.644,0.199,4.988e6,0,8.486,0.704,0.704,0.3,0.278,0.125,0.009,0.015,-3.71e-4,0,0,0,0,-7.154e-5,8.792e-4,3,7.069,87.484,0.035,6.045,54.026,953.97,1111.267,0.05,0.03
4.05,1673.304,217.068,-2.36,217.094,2.361,37.934,0.02,37.934,0.03,3.36,0.047,28.61,-80.6,0.998,0.05,-4.4e-7,-0.003,5.709e-5,612.886,130,2.105,0.021,33.388,28.454,1.645,0.196,4.901e6,0,8.189,0.703,0.703,0.3,0.278,0.125,0.008,0.014,-3.826e-4,0,0,0,0,-4.007e-5,8.639e-4,3,7.069,87.416,0.024,6.246,53.986,953.598,1111.224,0.05,0.03
4.1,1684.063,213.308,-2.315,213.334,2.315,38.101,0.02,38.101,0.03,3.329,0.003,28.61,-80.6,0.998,0.211,-4.055e-7,-3.663e-4,7.001e-7,612.886,130,2.105,0.021,33.334,28.454,1.627,0.192,4.814e6,0,7.902,0.703,0.703,0.3,0.278,0.125,0.034,0.055,-8.569e-5,0,0,0,0,-5.401e-7,8.49e-4,3,7.069,87.379,0.021,5.623,53.948,953.232,1111.181,0.05,0.03
4.15,1694.636,209.623,-2.267,209.649,2.267,38.267,0.02,38.267,0.03,3.309,0.03,28.61,-80.6,0.998,0.096,-4.222e-7,0.003,-7.052e-6,612.886,130,2.105,0.021,33.371,28.454,1.639,0.189,4.73e6,0,7.626,0.703,0.703,0.3,0.278,0.125,0.015,0.025,6.703e-5,0,0,0,0,2.878e-5,8.343e-4,3,7.069,87.405,0.024,5.85,53.91,952.873,1111.139,0.05,0.031
4.2,1705.027,206.012,-2.222,206.037,2.223,38.431,0.021,38.431,0.031,3.251,0.04,28.61,-80.6,0.998,0.052,-4.208e-7,0.004,-1.769e-5,612.886,130,2.105,0.021,33.385,28.454,1.644,0.186,4.648e6,0,7.36,0.703,0.703,0.301,0.278,0.124,0.008,0.014,2.535e-6,0,0,0,0,7.335e-5,8.199e-4,3,7.069,87.469,0.029,5.669,53.872,952.52,1111.098,0.05,0.031
4.25,1715.239,202.471,-2.18,202.496,2.18,38.592,0.021,38.592,0.031,3.181,0.047,28.61,-80.6,0.998,0.017,-4.04e-7,0.005,4.775e-5,612.886,130,2.105,0.021,33.397,28.454,1.648,0.182,4.566e6,0,7.105,0.702,0.702,0.301,0.277,0.124,0.003,0.004,-1.84e-4,0,0,0,0,1.019e-4,8.058e-4,3,7.069,87.551,0.033,5.423,53.836,952.172,1111.057,0.05,0.031
4.3,1725.275,198.999,-2.138,199.023,2.139,38.749,0.021,38.749,0.031,3.096,0.057,28.61,-80.6,0.998,0.037,-4.206e-7,-0.005,3.413e-5,612.886,130,2.105,0.021,33.389,28.454,1.645,0.179,4.487e6,0,6.858,0.702,0.702,0.301,0.277,0.124,0.006,0.01,1.342e-4,0,0,0,0,-9.694e-5,7.92e-4,3,7.069,87.637,0.043,5.25,53.8,951.831,1111.017,0.05,0.031
4.35,1735.14,195.592,-2.098,195.614,2.099,38.901,0.021,38.901,0.031,2.978,0.086,28.61,-80.6,0.998,0.163,-3.957e-7,-0.003,-1.907e-5,612.886,130,2.105,0.021,33.346,28.454,1.631,0.176,4.409e6,0,6.623,0.702,0.702,0.301,0.277,0.124,0.026,0.043,1.208e-4,0,0,0,0,-3.548e-5,7.785e-4,3,7.069,87.706,0.051,5.43,53.764,951.496,1110.978,0.05,0.032
4.4,1744.835,192.248,-2.06,192.269,2.061,39.047,0.022,39.047,0.032,2.846,0.076,28.61,-80.6,0.998,0.135,-4.074e-7,-2.542e-4,1.347e-5,612.886,130,2.105,0.021,33.355,28.454,1.634,0.173,4.333e6,0,6.394,0.702,0.702,0.301,0.277,0.124,0.022,0.036,4.377e-4,0,0,0,0,-3.202e-7,7.651e-4,3,7.069,87.731,0.052,5.226,53.729,951.166,1110.94,0.05,0.032
4.45,1754.365,188.964,-2.023,188.983,2.025,39.186,0.022,39.186,0.032,2.71,0.09,28.61,-80.6,0.998,0.205,-4.036e-7,0.003,9.642e-6,612.886,130,2.105,0.021,33.331,28.454,1.626,0.17,4.258e6,0,6.175,0.701,0.702,0.301,0.277,0.124,0.033,0.054,-2.679e-4,0,0,0,0,3.539e-5,7.521e-4,3,7.069,87.71,0.049,5.532,53.695,950.842,1110.902,0.05,0.033
4.5,1763.733,185.738,-1.987,185.756,1.99,39.317,0.022,39.317,0.032,2.552,0.103,28.61,-80.6,0.998,0.268,-4.043e-7,0.006,-2.36e-5,612.886,130,2.105,0.021,33.309,28.454,1.619,0.167,4.185e6,0,5.965,0.701,0.701,0.301,0.277,0.124,0.043,0.07,4.628e-4,0,0,0,0,2.152e-4,7.392e-4,3,7.069,87.629,0.045,6.02,53.661,950.524,1110.865,0.05,0.036
4.55,1772.94,182.567,-1.955,182.584,1.956,39.442,0.022,39.442,0.032,2.434,0.045,28.61,-80.6,0.998,0.009,-3.927e-7,0.008,-2.361e-4,612.886,130,2.105,0.021,33.395,28.454,1.647,0.165,4.112e6,0,5.757,0.701,0.701,0.301,0.277,0.124,0.001,0.002,1.339e-4,0,0,0,0,3.872e-4,7.266e-4,3,7.069,87.488,0.045,5.586,53.628,950.211,1110.828,0.05,0.036
4.6,1781.99,179.448,-1.923,179.464,1.923,39.562,0.023,39.562,0.033,2.37,0.037,28.61,-80.6,0.998,0.031,-4.004e-7,-0.008,-8.208e-5,612.886,130,2.105,0.021,33.388,28.454,1.645,0.162,4.042e6,0,5.56,0.701,0.701,0.301,0.277,0.123,0.005,0.009,2.511e-4,0,0,0,0,-3.879e-4,7.142e-4,3,7.069,87.336,0.044,5.88,53.596,949.903,1110.792,0.05,0.037
4.65,1790.886,176.38,-1.891,176.396,1.892,39.679,0.023,39.679,0.033,2.317,0.029,28.61,-80.6,0.998,0.073,-4.374e-7,-0.008,-4.116e-6,612.886,130,2.105,0.021,33.373,28.454,1.64,0.159,3.972e6,0,5.37,0.701,0.701,0.301,0.277,0.123,0.012,0.019,-4.317e-4,0,0,0,0,-3.323e-4,7.02e-4,3,7.069,87.193,0.039,6.101,53.564,949.601,1110.757,0.05,0.037
4.7,1799.629,173.364,-1.859,173.378,1.861,39.793,0.023,39.793,0.033,2.24,0.065,28.61,-80.6,0.998,0.101,-4.21e-7,0.008,4.199e-6,612.886,130,2.105,0.021,33.363,28.454,1.636,0.156,3.904e6,0,5.188,0.701,0.701,0.301,0.277,0.123,0.016,0.026,4.396e-4,0,0,0,0,3.626e-4,6.9e-4,3,7.069,87.06,0.035,6.981,53.532,949.303,1110.722,0.05,0.038
4.75,1808.223,170.394,-1.832,170.408,1.832,39.903,0.023,39.903,0.034,2.177,0.016,28.61,-80.6,0.998,0.154,-3.715e-7,-0.007,-2.735e-5,612.886,130,2.105,0.021,33.345,28.454,1.63,0.154,3.836e6,0,5.009,0.7,0.7,0.301,0.276,0.123,0.025,0.041,3.445e-4,0,0,0,0,-3.316e-4,6.781e-4,3,7.069,86.92,0.036,6.514,53.501,949.011,1110.688,0.05,0.038
4.8,1816.669,167.47,-1.803,167.484,1.803,40.011,0.024,40.011,0.034,2.149,0.021,28.61,-80.6,0.998,0.135,-4.048e-7,-0.005,-1.404e-5,612.886,130,2.105,0.021,33.351,28.454,1.632,0.151,3.77e6,0,4.837,0.7,0.7,0.301,0.276,0.123,0.022,0.035,-9.913e-5,0,0,0,0,-1.926e-4,6.665e-4,3,7.069,86.806,0.033,6.8,53.471,948.724,1110.655,0.05,0.038
4.85,1824.971,164.591,-1.776,164.605,1.776,40.118,0.024,40.118,0.034,2.128,0.007,28.61,-80.6,0.998,0.211,-4.297e-7,-0.003,1.705e-5,612.886,130,2.105,0.021,33.325,28.454,1.624,0.148,3.705e6,0,4.67,0.7,0.7,0.301,0.276,0.123,0.034,0.055,-6.585e-5,0,0,0,0,-7.266e-5,6.55e-4,3,7.069,86.727,0.031,6.672,53.441,948.442,1110.622,0.05,0.039
4.9,1833.129,161.755,-1.75,161.769,1.75,40.224,0.024,40.224,0.035,2.13,0.008,28.61,-80.6,0.998,0.3,-4.12e-7,-2.236e-4,5.364e-6,612.886,130,2.105,0.021,33.295,28.454,1.614,0.146,3.64e6,0,4.509,0.7,0.7,0.301,0.276,0.123,0.048,0.078,4.176e-4,0,0,0,0,-3.496e-7,6.438e-4,3,7.069,86.695,0.031,6.358,53.412,948.164,1110.589,0.05,0.039
4.95,1841.147,158.961,-1.723,158.976,1.723,40.331,0.025,40.331,0.035,2.119,0.021,28.61,-80.6,0.998,0.126,-4.137e-7,0.002,-8.456e-6,612.886,130,2.105,0.021,33.352,28.454,1.633,0.143,3.577e6,0,4.353,0.7,0.7,0.301,0.276,0.123,0.02,0.033,3.509e-4,0,0,0,0,3.397e-5,6.326e-4,3,7.069,86.716,0.032,6.66,53.383,947.892,1110.557,0.05,0.039
5,1849.026,156.21,-1.698,156.224,1.698,40.436,0.025,40.436,0.035,2.102,0.002,28.61,-80.6,0.998,0.238,-4.06e-7,0.004,-3.885e-6,612.886,130,2.105,0.021,33.315,28.454,1.62,0.141,3.514e6,0,4.201,0.7,0.7,0.301,0.276,0.123,0.038,0.062,-1.07e-4,0,0,0,0,1.323e-4,6.217e-4,3,7.069,86.773,0.033,6.049,53.355,947.624,1110.526,0.05,0.04
5.05,1856.769,153.498,-1.674,153.512,1.674,40.541,0.025,40.541,0.035,2.101,7.441e-4,28.61,-80.6,0.998,0.237,-4.006e-7,0.007,1.043e-5,612.886,130,2.105,0.021,33.315,28.454,1.62,0.138,3.452e6,0,4.054,0.699,0.7,0.301,0.276,0.122,0.038,0.062,3.158e-4,0,0,0,0,3.525e-4,6.109e-4,3,7.069,86.872,0.035,5.651,53.327,947.361,1110.495,0.05,0.04
5.1,1864.377,150.826,-1.648,150.84,1.648,40.646,0.025,40.646,0.036,2.058,0.05,28.61,-80.6,0.998,0.104,-4.539e-7,-0.007,2.676e-5,612.886,130,2.105,0.021,33.359,28.454,1.635,0.136,3.392e6,0,3.913,0.699,0.699,0.301,0.276,0.122,0.017,0.027,-4.045e-4,0,0,0,0,-4.371e-4,6.003e-4,3,7.069,87.005,0.039,6.122,53.3,947.102,1110.465,0.05,0.04
5.15,1871.852,148.194,-1.625,148.207,1.626,40.746,0.026,40.746,0.036,1.97,0.058,28.61,-80.6,0.998,0.177,-4.298e-7,-0.006,4.398e-6,612.886,130,2.105,0.021,33.334,28.454,1.627,0.134,3.332e6,0,3.776,0.699,0.699,0.301,0.276,0.122,0.028,0.047,-2.93e-4,0,0,0,0,-2.964e-4,5.898e-4,3,7.069,87.126,0.042,5.932,53.273,946.848,1110.436,0.05,0.041
5.2,1879.197,145.599,-1.602,145.611,1.604,40.842,0.026,40.842,0.036,1.866,0.07,28.61,-80.6,0.998,0.284,-4.334e-7,-0.004,7.951e-6,612.886,130,2.105,0.021,33.298,28.454,1.615,0.131,3.273e6,0,3.644,0.699,0.699,0.301,0.276,0.122,0.046,0.074,-6.078e-5,0,0,0,0,-1.201e-4,5.795e-4,3,7.069,87.215,0.047,5.947,53.246,946.598,1110.406,0.05,0.042
5.25,1886.412,143.039,-1.581,143.05,1.582,40.933,0.026,40.933,0.037,1.761,0.06,28.61,-80.6,0.998,0.233,-4.109e-7,-0.001,-1.689e-5,612.886,130,2.105,0.021,33.314,28.454,1.62,0.129,3.215e6,0,3.515,0.699,0.699,0.301,0.276,0.122,0.038,0.061,-2.042e-4,0,0,0,0,-1.61e-5,5.693e-4,3,7.069,87.259,0.051,5.669,53.22,946.353,1110.378,0.05,0.042
5.3,1893.501,140.512,-1.561,140.522,1.561,41.019,0.026,41.019,0.037,1.678,0.044,28.61,-80.6,0.998,0.131,-4.164e-7,2.761e-4,-2.273e-6,612.886,130,2.105,0.021,33.348,28.454,1.631,0.127,3.157e6,0,3.39,0.699,0.699,0.301,0.276,0.122,0.021,0.034,2.997e-4,0,0,0,0,7.067e-7,5.592e-4,3,7.069,87.267,0.054,5.35,53.195,946.112,1110.35,0.05,0.042
5.35,1900.464,138.017,-1.541,138.026,1.542,41.101,0.027,41.101,0.037,1.621,0.027,28.61,-80.6,0.998,6.01e-4,-4.18e-7,0,0,612.886,130,2.105,0.021,33.391,28.454,1.646,0.124,3.1e6,0,3.268,0.699,0.699,0.301,0.276,0.122,9.585e-5,-3.407e-4,-2.334e-4,0,0,0,0,0,5.493e-4,3,7.069,87.254,0.055,4.995,53.17,945.875,1110.322,0.05,0.042
5.4,1907.303,135.553,-1.522,135.562,1.522,41.181,0.027,41.181,0.037,1.566,0.041,28.61,-80.6,0.998,0.125,-4.177e-7,0.001,-3.561e-6,612.886,130,2.105,0.021,33.349,28.454,1.632,0.122,3.045e6,0,3.152,0.699,0.699,0.301,0.276,0.122,0.02,0.033,3.64e-4,0,0,0,0,1.898e-5,5.395e-4,3,7.069,87.236,0.053,5.28,53.145,945.643,1110.295,0.05,0.043
5.45,1914.02,133.121,-1.502,133.129,1.503,41.257,0.027,41.257,0.038,1.485,0.059,28.61,-80.6,0.998,0.287,-4.181e-7,0.003,1.242e-6,612.886,130,2.105,0.021,33.295,28.454,1.614,0.12,2.99e6,0,3.041,0.698,0.699,0.301,0.275,0.122,0.046,0.075,2.29e-5,0,0,0,0,9.542e-5,5.298e-4,3,7.069,87.198,0.05,5.703,53.121,945.414,1110.268,0.05,0.043
5.5,1920.616,130.719,-1.485,130.726,1.485,41.33,0.027,41.33,0.038,1.407,0.038,28.61,-80.6,0.998,0.12,-4.156e-7,0.005,-4.462e-6,612.886,130,2.105,0.021,33.35,28.454,1.632,0.118,2.935e6,0,2.93,0.698,0.698,0.301,0.275,0.122,0.019,0.031,-4.83e-4,0,0,0,0,2.232e-4,5.202e-4,3,7.069,87.127,0.046,5.423,53.098,945.19,1110.242,0.05,0.043
5.55,1927.092,128.345,-1.467,128.352,1.467,41.398,0.028,41.398,0.038,1.347,0.036,28.61,-80.6,0.998,0.108,-4.213e-7,0.005,5.531e-6,612.886,130,2.105,0.021,33.354,28.454,1.633,0.116,2.882e6,0,2.824,0.698,0.698,0.301,0.275,0.122,0.017,0.028,-2.218e-4,0,0,0,0,3.278e-4,5.108e-4,3,7.069,87.037,0.043,5.54,53.074,944.97,1110.216,0.05,0.044
5.6,1933.451,125.999,-1.449,126.006,1.45,41.464,0.028,41.464,0.039,1.273,0.055,28.61,-80.6,0.998,0.287,-4.068e-7,0.007,1.305e-5,612.886,130,2.105,0.021,33.294,28.454,1.613,0.114,2.83e6,0,2.723,0.698,0.698,0.301,0.275,0.122,0.046,0.074,-2.381e-4,0,0,0,0,5.393e-4,5.014e-4,3,7.069,86.928,0.04,6.127,53.051,944.754,1110.191,0.05,0.044
5.65,1939.693,123.681,-1.433,123.687,1.434,41.526,0.028,41.526,0.039,1.2,0.036,28.61,-80.6,0.998,0.113,-4.335e-7,0.008,2.186e-5,612.886,130,2.105,0.021,33.352,28.454,1.633,0.112,2.777e6,0,2.622,0.698,0.698,0.301,0.275,0.122,0.018,0.029,4.317e-4,0,0,0,0,7.976e-4,4.922e-4,3,7.069,86.79,0.037,5.976,53.029,944.541,1110.166,0.05,0.044
5.7,1945.819,121.388,-1.417,121.393,1.418,41.584,0.028,41.584,0.039,1.146,0.031,28.61,-80.6,0.998,0.056,-4.165e-7,0.009,2.15e-5,612.886,130,2.105,0.021,33.371,28.454,1.639,0.11,2.725e6,0,2.525,0.698,0.698,0.301,0.275,0.122,0.009,0.014,-3.235e-4,0,0,0,0,9.461e-4,4.831e-4,3,7.069,86.638,0.038,6.104,53.007,944.333,1110.142,0.05,0.045
5.75,1951.832,119.12,-1.403,119.125,1.403,41.641,0.029,41.641,0.04,1.111,0.014,28.61,-80.6,0.998,0.122,-4.369e-7,-0.008,2.83e-5,612.886,130,2.105,0.021,33.348,28.454,1.631,0.107,2.674e6,0,2.431,0.698,0.698,0.301,0.275,0.122,0.02,0.033,2.298e-4,0,0,0,0,-9.252e-4,4.74e-4,3,7.069,86.481,0.038,5.955,52.985,944.129,1110.118,0.05,0.046
5.8,1957.732,116.874,-1.389,116.88,1.389,41.696,0.029,41.696,0.04,1.101,0.001,28.61,-80.6,0.998,0.295,-4.049e-7,-0.007,3.821e-6,612.886,130,2.105,0.021,33.291,28.454,1.612,0.105,2.623e6,0,2.34,0.698,0.698,0.301,0.275,0.121,0.048,0.078,-9.546e-5,0,0,0,0,-6.9e-4,4.651e-4,3,7.069,86.338,0.039,5.77,52.964,943.928,1110.095,0.05,0.046
5.85,1963.52,114.652,-1.374,114.658,1.374,41.751,0.029,41.751,0.04,1.107,0.005,28.61,-80.6,0.998,0.351,-4.247e-7,-0.005,1.528e-5,612.886,130,2.105,0.021,33.272,28.454,1.606,0.103,2.573e6,0,2.252,0.698,0.698,0.301,0.275,0.121,0.057,0.091,-2.877e-4,0,0,0,0,-3.846e-4,4.563e-4,3,7.069,86.226,0.042,5.748,52.943,943.731,1110.072,0.05,0.046
5.9,1969.197,112.454,-1.359,112.459,1.359,41.806,0.03,41.806,0.04,1.105,0.008,28.61,-80.6,0.998,0.203,-4.095e-7,-0.004,2.287e-6,612.886,130,2.105,0.021,33.32,28.454,1.622,0.102,2.524e6,0,2.166,0.698,0.698,0.301,0.275,0.121,0.033,0.053,-3.182e-4,0,0,0,0,-1.972e-4,4.475e-4,3,7.069,86.147,0.045,6.069,52.923,943.538,1110.049,0.05,0.046
5.95,1974.765,110.278,-1.346,110.284,1.346,41.861,0.03,41.862,0.041,1.1,3.008e-4,28.61,-80.6,0.998,0.305,-4.154e-7,-0.002,1.647e-5,612.886,130,2.105,0.021,33.287,28.454,1.611,0.1,2.475e6,0,2.083,0.698,0.698,0.301,0.275,0.121,0.049,0.079,4.438e-4,0,0,0,0,-7.895e-5,4.389e-4,3,7.069,86.093,0.049,5.841,52.903,943.349,1110.027,0.05,0.047
6,1980.225,108.124,-1.333,108.129,1.333,41.917,0.03,41.917,0.041,1.106,0.007,28.61,-80.6,0.998,0.394,-4.146e-7,-4.611e-4,1.829e-5,612.886,130,2.105,0.021,33.257,28.454,1.601,0.098,2.426e6,0,2.002,0.697,0.698,0.301,0.275,0.121,0.064,0.102,-1.02e-4,0,0,0,0,-3.324e-6,4.303e-4,3,7.069,86.068,0.054,5.578,52.883,943.163,1110.005,0.05,0.047
6.05,1985.578,105.992,-1.318,105.997,1.318,41.972,0.03,41.972,0.041,1.103,0.011,28.61,-80.6,0.998,0.153,-4.13e-7,9.026e-4,2.761e-5,612.886,130,2.105,0.021,33.336,28.454,1.628,0.096,2.378e6,0,1.923,0.697,0.697,0.301,0.275,0.121,0.025,0.04,-4.697e-4,0,0,0,0,1.325e-5,4.218e-4,3,7.069,86.074,0.059,5.891,52.864,942.982,1109.984,0.05,0.048
6.1,1990.825,103.881,-1.305,103.887,1.305,42.027,0.031,42.027,0.042,1.081,0.015,28.61,-80.6,0.998,0.085,-4.181e-7,0.001,3.161e-5,612.886,130,2.105,0.021,33.359,28.454,1.635,0.094,2.331e6,0,1.847,0.697,0.697,0.301,0.275,0.121,0.014,0.022,1.933e-4,0,0,0,0,3.719e-5,4.134e-4,3,7.069,86.096,0.063,5.853,52.845,942.803,1109.963,0.05,0.048
6.15,1995.967,101.792,-1.292,101.797,1.292,42.08,0.031,42.08,0.042,1.043,0.032,28.61,-80.6,0.998,0.171,-4.141e-7,-0.001,8.61e-6,612.886,130,2.105,0.021,33.33,28.454,1.625,0.092,2.284e6,0,1.774,0.697,0.697,0.301,0.275,0.121,0.027,0.044,4.212e-4,0,0,0,0,-2.948e-5,4.051e-4,3,7.069,86.123,0.065,6.165,52.827,942.628,1109.943,0.05,0.048
6.2,2001.005,99.723,-1.28,99.728,1.28,42.131,0.031,42.131,0.042,0.987,0.037,28.61,-80.6,0.998,0.263,-4.145e-7,-3.193e-4,1.857e-6,612.886,130,2.105,0.021,33.299,28.454,1.615,0.09,2.238e6,0,1.703,0.697,0.697,0.301,0.275,0.121,0.042,0.068,-4.098e-4,0,0,0,0,-1.872e-6,3.969e-4,3,7.069,86.138,0.066,6.206,52.809,942.457,1109.923,0.05,0.048
6.25,2005.939,97.674,-1.268,97.678,1.269,42.178,0.031,42.178,0.043,0.929,0.036,28.61,-80.6,0.998,0.273,-4.156e-7,8.297e-4,8.631e-6,612.886,130,2.105,0.021,33.296,28.454,1.614,0.088,2.192e6,0,1.633,0.697,0.697,0.301,0.275,0.121,0.044,0.071,4.961e-4,0,0,0,0,1.317e-5,3.887e-4,3,7.069,86.133,0.064,6.141,52.791,942.289,1109.903,0.05,0.049
6.3,2010.772,95.643,-1.257,95.647,1.258,42.223,0.032,42.223,0.043,0.869,0.039,28.61,-80.6,0.998,0.344,-4.112e-7,0.002,1.266e-5,612.886,130,2.105,0.021,33.272,28.454,1.606,0.086,2.146e6,0,1.566,0.697,0.697,0.301,0.275,0.121,0.056,0.089,1.606e-4,0,0,0,0,8.687e-5,3.806e-4,3,7.069,86.107,0.061,6.218,52.774,942.125,1109.884,0.05,0.049
6.35,2015.504,93.629,-1.247,93.632,1.247,42.265,0.032,42.265,0.043,0.819,0.024,28.61,-80.6,0.998,0.106,-4.207e-7,0.003,-3.358e-6,612.886,130,2.105,0.021,33.351,28.454,1.632,0.085,2.1e6,0,1.499,0.697,0.697,0.301,0.275,0.121,0.017,0.028,-6.314e-5,0,0,0,0,1.84e-4,3.726e-4,3,7.069,86.06,0.057,5.801,52.757,941.964,1109.865,0.05,0.049
6.4,2020.135,91.631,-1.237,91.635,1.237,42.306,0.032,42.306,0.044,0.789,0.014,28.61,-80.6,0.998,0.059,-4.15e-7,-0.003,-1.569e-5,612.886,130,2.105,0.021,33.366,28.454,1.638,0.083,2.055e6,0,1.435,0.697,0.697,0.301,0.275,0.121,0.009,0.016,2.278e-4,0,0,0,0,-2.023e-4,3.646e-4,3,7.069,86.005,0.053,5.514,52.74,941.807,1109.847,0.05,0.049
6.45,2024.667,89.65,-1.226,89.653,1.226,42.344,0.033,42.344,0.044,0.761,0.02,28.61,-80.6,0.998,0.076,-4.145e-7,0.003,2.181e-5,612.886,130,2.105,0.021,33.361,28.454,1.636,0.081,2.011e6,0,1.374,0.697,0.697,0.301,0.275,0.121,0.012,0.02,3.85e-4,0,0,0,0,2.154e-4,3.568e-4,3,7.069,85.95,0.049,5.706,52.724,941.653,1109.829,0.05,0.049
6.5,2029.101,87.686,-1.216,87.689,1.216,42.381,0.033,42.381,0.044,0.72,0.031,28.61,-80.6,0.998,0.29,-4.084e-7,0.004,2.234e-5,612.886,130,2.105,0.021,33.289,28.454,1.612,0.079,1.967e6,0,1.316,0.697,0.697,0.301,0.275,0.121,0.047,0.075,-3.957e-4,0,0,0,0,3.264e-4,3.489e-4,3,7.069,85.89,0.046,6.028,52.708,941.502,1109.811,0.05,0.05
6.55,2033.436,85.738,-1.206,85.741,1.206,42.416,0.033,42.416,0.045,0.668,0.033,28.61,-80.6,0.998,0.367,-4.142e-7,0.005,1.882e-5,612.886,130,2.105,0.021,33.264,28.454,1.603,0.078,1.924e6,0,1.258,0.697,0.697,0.301,0.275,0.121,0.059,0.095,-1.16e-4,0,0,0,0,5.666e-4,3.412e-4,3,7.069,85.814,0.042,6.159,52.692,941.354,1109.794,0.05,0.05
6.6,2037.675,83.806,-1.197,83.808,1.197,42.448,0.033,42.448,0.045,0.626,0.019,28.61,-80.6,0.998,0.082,-4.114e-7,0.005,7.316e-5,612.886,130,2.105,0.021,33.358,28.454,1.635,0.076,1.88e6,0,1.201,0.697,0.697,0.301,0.275,0.121,0.013,0.021,3.636e-4,0,0,0,0,7.799e-4,3.335e-4,3,7.069,85.72,0.039,5.763,52.677,941.21,1109.777,0.05,0.05
6.65,2041.817,81.887,-1.187,81.89,1.188,42.479,0.034,42.479,0.045,0.583,0.035,28.61,-80.6,0.998,0.452,-4.086e-7,0.006,2.018e-5,612.886,130,2.105,0.021,33.236,28.454,1.594,0.074,1.838e6,0,1.149,0.697,0.697,0.301,0.275,0.121,0.073,0.116,-3.931e-4,0,0,0,0,0.001,3.259e-4,3,7.069,85.616,0.036,6.348,52.662,941.07,1109.761,0.05,0.05
6.7,2045.864,79.984,-1.179,79.986,1.179,42.507,0.034,42.507,0.046,0.527,0.035,28.61,-80.6,0.998,0.469,-4.131e-7,0.008,2.204e-5,612.886,130,2.105,0.021,33.23,28.454,1.592,0.072,1.795e6,0,1.096,0.697,0.697,0.301,0.275,0.121,0.076,0.119,-3.514e-4,0,0,0,0,0.002,3.183e-4,3,7.069,85.491,0.034,6.44,52.647,940.932,1109.745,0.05,0.05
6.75,2049.816,78.096,-1.169,78.097,1.17,42.531,0.034,42.531,0.046,0.462,0.046,28.61,-80.6,0.998,0.776,-4.128e-7,0.009,1.128e-5,612.886,130,2.105,0.021,33.131,28.454,1.559,0.071,1.754e6,0,1.048,0.697,0.698,0.301,0.274,0.121,0.127,0.195,-1.31e-4,0,0,0,0,0.003,3.108e-4,3,7.069,85.341,0.033,6.97,52.633,940.798,1109.729,0.05,0.051
6.8,2053.674,76.221,-1.162,76.222,1.162,42.553,0.034,42.553,0.046,0.393,0.039,28.61,-80.6,0.998,0.638,-4.185e-7,0.011,1.494e-5,612.886,130,2.105,0.021,33.175,28.454,1.574,0.069,1.712e6,0,0.997,0.697,0.697,0.301,0.274,0.121,0.104,0.16,1.384e-5,0,0,0,0,0.004,3.033e-4,3,7.069,85.158,0.033,6.918,52.619,940.666,1109.714,0.05,0.051
6.85,2057.438,74.358,-1.154,74.359,1.155,42.571,0.035,42.571,0.047,0.339,0.029,28.61,-80.6,0.998,0.401,-4.008e-7,0.012,2.818e-5,612.886,130,2.105,0.021,33.252,28.454,1.599,0.067,1.67e6,0,0.948,0.696,0.697,0.301,0.274,0.121,0.065,0.099,-7.423e-5,0,0,0,0,0.005,2.959e-4,3,7.069,84.948,0.033,6.759,52.606,940.538,1109.699,0.05,0.051
6.9,2061.11,72.508,-1.147,72.508,1.147,42.587,0.035,42.587,0.047,0.293,0.027,28.61,-80.6,0.998,0.384,-4.05e-7,0.013,2.58e-5,612.886,130,2.105,0.021,33.257,28.454,1.601,0.066,1.629e6,0,0.902,0.696,0.697,0.301,0.274,0.121,0.062,0.093,-1.964e-4,0,0,0,0,0.006,2.885e-4,3,7.069,84.719,0.033,6.899,52.593,940.414,1109.684,0.05,0.051
6.95,2064.689,70.669,-1.139,70.67,1.14,42.6,0.035,42.6,0.047,0.252,0.024,28.61,-80.6,0.998,0.317,-4.195e-7,0.014,2.693e-5,612.886,130,2.105,0.021,33.279,28.454,1.608,0.064,1.588e6,0,0.857,0.696,0.697,0.301,0.274,0.121,0.051,0.075,5.592e-5,0,0,0,0,0.007,2.812e-4,3,7.069,84.476,0.033,6.978,52.58,940.292,1109.67,0.05,0.052
7,2068.177,68.842,-1.132,68.843,1.132,42.612,0.035,42.612,0.048,0.212,0.024,28.61,-80.6,0.998,0.337,-4.122e-7,0.014,1.669e-5,612.886,130,2.105,0.021,33.272,28.454,1.606,0.062,1.547e6,0,0.814,0.696,0.697,0.301,0.274,0.121,0.054,0.08,6.523e-5,0,0,0,0,0.008,2.739e-4,3,7.069,84.221,0.034,7.165,52.567,940.173,1109.656,0.05,0.052
7.05,2071.573,67.026,-1.126,67.026,1.126,42.622,0.036,42.622,0.048,0.181,0.014,28.61,-80.6,0.998,0.022,-4.175e-7,0.015,3.528e-4,612.886,130,2.105,0.021,33.377,28.454,1.641,0.061,1.506e6,0,0.771,0.696,0.696,0.301,0.274,0.12,0.003,-0.003,4.295e-4,0,0,0,0,0.009,2.667e-4,3,7.069,83.956,0.034,6.94,52.555,940.058,1109.643,0.05,0.052
7.1,2074.88,65.22,-1.119,65.22,1.119,42.63,0.036,42.63,0.048,0.161,0.011,28.61,-80.6,0.998,0.089,-4.07e-7,-0.015,7.032e-5,612.886,130,2.105,0.021,33.355,28.454,1.634,0.059,1.466e6,0,0.731,0.696,0.696,0.301,0.274,0.12,0.014,0.032,4.971e-4,0,0,0,0,-0.009,2.595e-4,3,7.069,83.691,0.036,6.948,52.543,939.945,1109.63,0.05,0.052
7.15,2078.096,63.423,-1.114,63.424,1.114,42.638,0.036,42.638,0.049,0.155,0.004,28.61,-80.6,0.998,0.639,-4.174e-7,-0.014,2.116e-5,612.886,130,2.105,0.021,33.174,28.454,1.573,0.057,1.425e6,0,0.691,0.696,0.697,0.301,0.274,0.12,0.104,0.173,2.615e-4,0,0,0,0,-0.009,2.524e-4,3,7.069,83.432,0.037,6.43,52.532,939.836,1109.617,0.05,0.052
7.2,2081.222,61.634,-1.11,61.634,1.11,42.646,0.036,42.646,0.049,0.173,0.018,28.61,-80.6,0.998,1.202,-4.206e-7,-0.012,1.947e-5,612.886,130,2.105,0.021,32.996,28.454,1.514,0.056,1.384e6,0,0.654,0.696,0.699,0.301,0.274,0.12,0.2,0.31,-6.764e-5,0,0,0,0,-0.007,2.453e-4,3,7.069,83.194,0.038,5.874,52.52,939.73,1109.604,0.05,0.053
7.25,2084.259,59.854,-1.104,59.854,1.104,42.655,0.037,42.655,0.049,0.201,0.017,28.61,-80.6,0.998,1.222,-4.254e-7,-0.01,1.825e-5,612.886,130,2.105,0.021,32.99,28.454,1.512,0.054,1.344e6,0,0.617,0.696,0.699,0.301,0.274,0.12,0.203,0.313,-2.502e-4,0,0,0,0,-0.005,2.382e-4,3,7.069,82.989,0.04,5.867,52.509,939.627,1109.592,0.05,0.053
7.3,2087.207,58.083,-1.098,58.083,1.098,42.666,0.037,42.666,0.05,0.229,0.018,28.61,-80.6,0.998,1.311,-4.151e-7,-0.009,1.506e-5,612.886,130,2.105,0.021,32.962,28.454,1.503,0.053,1.304e6,0,0.581,0.696,0.7,0.301,0.274,0.12,0.219,0.333,-1.428e-4,0,0,0,0,-0.004,2.311e-4,3,7.069,82.819,0.042,5.743,52.499,939.526,1109.581,0.05,0.053
7.35,2090.068,56.321,-1.092,56.322,1.092,42.678,0.037,42.678,0.05,0.255,0.015,28.61,-80.6,0.998,1.244,-4.123e-7,-0.007,1.354e-5,612.886,130,2.105,0.021,32.983,28.454,1.51,0.051,1.265e6,0,0.547,0.696,0.699,0.301,0.274,0.12,0.207,0.315,2.997e-4,0,0,0,0,-0.003,2.241e-4,3,7.069,82.682,0.043,5.739,52.489,939.429,1109.569,0.05,0.053
7.4,2092.84,54.569,-1.086,54.57,1.086,42.692,0.037,42.692,0.05,0.278,0.014,28.61,-80.6,0.998,1.243,-4.142e-7,-0.005,1.412e-5,612.886,130,2.105,0.021,32.983,28.454,1.51,0.049,1.226e6,0,0.513,0.696,0.699,0.301,0.274,0.12,0.207,0.314,4.648e-4,0,0,0,0,-0.002,2.171e-4,3,7.069,82.576,0.045,5.631,52.479,939.335,1109.558,0.05,0.054
7.45,2095.525,52.827,-1.079,52.828,1.079,42.706,0.038,42.706,0.051,0.289,2.925e-4,28.61,-80.6,0.998,0.56,-4.16e-7,-0.004,8.324e-6,612.886,130,2.105,0.021,33.199,28.454,1.582,0.048,1.189e6,0,0.481,0.696,0.697,0.302,0.274,0.12,0.091,0.145,-4.683e-4,0,0,0,0,-0.001,2.102e-4,3,7.069,82.496,0.047,6.146,52.469,939.244,1109.548,0.05,0.054
7.5,2098.123,51.096,-1.073,51.097,1.073,42.72,0.038,42.72,0.051,0.284,0.006,28.61,-80.6,0.998,0.234,-4.157e-7,-0.003,6.027e-7,612.886,130,2.105,0.021,33.305,28.454,1.617,0.046,1.151e6,0,0.45,0.696,0.696,0.302,0.274,0.12,0.038,0.062,-2.557e-4,0,0,0,0,-8.371e-4,2.033e-4,3,7.069,82.43,0.049,6.296,52.46,939.155,1109.537,0.05,0.054
7.55,2100.634,49.375,-1.068,49.375,1.068,42.734,0.038,42.734,0.051,0.271,0.009,28.61,-80.6,0.998,0.005,-4.167e-7,-0.003,-6.147e-4,612.886,130,2.105,0.021,33.382,28.454,1.643,0.045,1.112e6,0,0.421,0.696,0.696,0.302,0.274,0.12,8.763e-4,0.002,-4.235e-4,0,0,0,0,-7.972e-4,1.965e-4,3,7.069,82.369,0.05,6.34,52.451,939.07,1109.527,0.05,0.054
7.6,2103.06,47.661,-1.063,47.662,1.063,42.747,0.038,42.747,0.051,0.254,0.012,28.61,-80.6,0.998,0.2,-4.146e-7,0.003,-3.062e-5,612.886,130,2.105,0.021,33.316,28.454,1.621,0.043,1.074e6,0,0.392,0.696,0.696,0.302,0.274,0.12,0.032,0.051,1.045e-4,0,0,0,0,9.368e-4,1.897e-4,3,7.069,82.308,0.052,6.353,52.442,938.987,1109.518,0.05,0.055
7.65,2105.401,45.956,-1.058,45.956,1.058,42.759,0.039,42.759,0.052,0.231,0.017,28.61,-80.6,0.998,0.608,-4.175e-7,0.004,-1.978e-5,612.886,130,2.105,0.021,33.183,28.454,1.576,0.042,1.037e6,0,0.366,0.696,0.697,0.302,0.274,0.12,0.099,0.155,1.533e-4,0,0,0,0,0.001,1.829e-4,3,7.069,82.243,0.053,6.527,52.433,938.908,1109.508,0.05,0.055
7.7,2107.656,44.259,-1.053,44.259,1.053,42.77,0.039,42.77,0.052,0.198,0.023,28.61,-80.6,0.998,1.156,-4.17e-7,0.005,-1.504e-5,612.886,130,2.105,0.021,33.01,28.454,1.519,0.04,1e6,0,0.342,0.696,0.699,0.302,0.274,0.12,0.192,0.289,3.347e-5,0,0,0,0,0.002,1.761e-4,3,7.069,82.168,0.054,6.802,52.425,938.831,1109.499,0.05,0.055
7.75,2109.827,42.569,-1.048,42.569,1.049,42.779,0.039,42.779,0.052,0.161,0.023,28.61,-80.6,0.998,1.257,-4.178e-7,0.006,-1.456e-5,612.886,130,2.105,0.021,32.978,28.454,1.508,0.039,9.627e5,0,0.317,0.696,0.699,0.302,0.274,0.12,0.21,0.313,-6.531e-5,0,0,0,0,0.003,1.694e-4,3,7.069,82.077,0.055,6.719,52.418,938.757,1109.491,0.05,0.055
7.8,2111.913,40.885,-1.045,40.886,1.045,42.786,0.039,42.786,0.053,0.127,0.019,28.61,-80.6,0.998,1.066,-4.155e-7,0.006,-1.448e-5,612.886,130,2.105,0.021,33.037,28.454,1.528,0.037,9.244e5,0,0.291,0.696,0.698,0.302,0.274,0.12,0.177,0.266,2.927e-4,0,0,0,0,0.004,1.627e-4,3,7.069,81.969,0.055,6.42,52.41,938.686,1109.483,0.05,0.056
7.85,2113.915,39.208,-1.04,39.209,1.041,42.792,0.04,42.792,0.053,0.092,0.025,28.61,-80.6,0.998,1.674,-4.156e-7,0.007,-1.122e-5,612.886,130,2.105,0.021,32.852,28.454,1.466,0.036,8.883e5,0,0.271,0.697,0.703,0.303,0.274,0.12,0.283,0.409,-3.043e-4,0,0,0,0,0.006,1.56e-4,3,7.069,81.846,0.055,6.701,52.403,938.618,1109.475,0.05,0.056
